,Screen_name,Text,Location,Sentiment,Latitude,Longitude
0,Lifematician,"(+) It's pretty obvious Trump would have won the election if not for the COVID-19 outbreak, or perhaps if he managed the outbreak well...",Suru-lere,+,7.940989,5.0548785
1,TravelCulturati,() A Guide to All 50 States' COVID-19 Travel Restrictions,"Chicago, IL",,41.8755546,-87.6244212
2,MatsilMarc,"(-) @cnnbrk Relax everybody, no rich man has died from covid-19 ü§îü§îü§î NASAE picture of Meadow. No flushing...",World,-,38.89412085,-77.0229466193185
3,PercievedLogic,"() US again breaks daily Covid-19 record with 121,000 cases recorded Thursday","Melbourne, Australia",,-37.8142176,144.9631608
5,WillekeVE,() [UPDATED] COVID-19 resources via @WillekeVE #COVID19ireland #COVID19 #WearAMask #MentalHealth @CovidIreland @CovidIreland,Ireland,,52.865196,-7.9794599
6,chrischinj,(-) Just got back my results from my COVID-19 test and I‚Äôm still negative Thank God üòåüôåüèæ,Jfk Airport,-,40.6429479,-73.7793733748521
7,GangapuramAkhi9,(+) I am proud to have contributed to India's fight against COVID-19 by donating to #PMCARES. #COVID19India,"Hyderabad, India",+,17.3886068,78.4608095675926
8,PissedWhiteDude,"() Pittsford a hotspot? BS! Don‚Äôt know 1 person that has it. Cuomo: Monroe Co. COVID-19 rates ""a problem""",The World,,38.89412085,-77.0229466193185
9,MiddleManLost,() Petition: Hold a public inquiry into Government contracts granted during Covid-19,Edinburgh,,55.9495628,-3.1914972
11,JackDaniels_US,"(-) The Jack Daniel Visitor Center is open for tours 7 days a week, 9AM-4:30PM. Tours have been modified due to Covid-19 and masks are required. Visit link for reservations and details: #JackDaniels",Lynchburg TN,-,35.2831727,-86.3739827
12,Softwareupdate1,() Asia-Pacific ERP Software Market size Witness Comprehensive Growth size COVID-19 2026 - The Daily Philadelphian,"CANADA, Whitehorse ",,60.721571,-135.054932
13,SoftwareTimes,() Asia-Pacific ERP Software Market size Witness Comprehensive Growth size COVID-19 2026 - The Daily Philadelphian,"Canada, Charlottetown ",,46.234953,-63.132935
14,nyulaw,"(+) On October 1, @nyulaw‚Äôs Institute for Corporate Governance and Finance convened experts for a wide-ranging discussion on the future of economic and financial policy amid the COVID-19 pandemic, climate change, and other globally destabilizing phenomena:","New York, New York",+,40.7306458,-73.9866136
15,1supermomdlb,(+) Divine intervention Note no positive Covid for any of the Biden campaign despite the illegitimate potus trying. President Trump's chief of staff Mark Meadows tests positive for COVID-19,"New York, USA",+,40.7306458,-73.9866136
16,RyanRadia,() @Andrew___Baker The Trump administration: reducing Covid-19 death inequality by spreading the viral wealth across the country,"Washington, DC",,38.8949549,-77.0366456
17,AndreBestMN,(+) Did you hear about the temporary Parent/Spouse allowance for PCAs? Click here to learn more about this temporary change during the COVID-19 peacetime emergency!,Minnesota,+,45.9896587,-94.6113288
18,newsfromrooftop,(+) British Library launches national programme to support SME‚Äôs through Covid-19 pandemic | #ResetRestart initiative from @BIPC offers free practical training and advice for business owners. #business #entrepreneur #goodnews,United Kingdom,+,25.2232283,55.1594933008754
19,News_8,(+) The parents of a Texas kindergartener who tested positive for COVID-19 said doctors told them she would be fine and discharged her ‚Äì less than 24 hours later she was dead.,"Rochester, NY",+,43.157285,-77.615214
20,visitnatchez,() We look forward to welcoming visitors to Natchez's scenic outdoors and numerous tourism offerings. See how we're taking COVID-19 precautions here: #VisitNatchezResponsibly #VisitMSResponsibly,"Natchez, Mississippi",,31.5604442,-91.403171
21,DailyMirror,(-) Mum who got Covid-19 twice thinking she was immune warns second time is just as bad,UK,-,54.7023545,-3.2765753
23,NationAfrica,"(+) Kenya's Covid-19 cases top 61,000 as 1,065 more test positive",Kenya,+,1.4419683,38.4313975
24,ILSchoolNet,(+) QPS reports 7 new COVID-19 cases; district tracks 42 active cases,Illinois,+,40.0796606,-89.4337288
25,commreview,(+) Portland Mayor John Boggs returned to work Friday after he tested positive for COVID-19 last week,"Portland, IN",+,40.4344895,-84.9777455
26,LoyolaSciences,(+) Submit your questions about Covid-19 and the future of healthcare for Grand Seminar speaker Dr. Leana Wen by Nov. 12 and tune in on Nov. 18 at 5 pm for a livestreamed conversation. Details at . #GrandSeminar2020 #LoyolaMaryland #publichealth #covid19,"Baltimore, MD",+,39.2908816,-76.610759
27,hJayk,(-) @realDonaldTrump maybe you should try as hard to stop covid-19 as you are trying to stop legal votes. Smh,Toronto,-,43.653963,-79.387207
28,onisillos,() Aspirin to be investigated as a possible treatment for COVID-19 in the RECOVERY trial ‚Äî RECOVERY Trial,"London, UK",,51.5073219,-0.1276474
31,GayToryJon,() @Conservatlve_JA Was that before Covid-19 though?,"Blackpool, England",,53.8245483,-3.03731999502197
32,FreemontJane,(+) This whole scheme of the GOPis gonna end up backfiring AND they all end up killing themselves with the covid-19 pandemic they are in denial of???,"Portland, OR",+,45.5202471,-122.6741949
33,PhilAmmann,"(+) Reports: @MattGaetz, @MichaelgWaltz test positive for COVID-19 #FlaPol","St. Petersburg, FL",+,27.7703796,-82.6695085
34,stump_boston,"(+) Due to the current COVID-19 restrictions, we are unable to hold our usual Boston Remembrance Service at the War Memorial or in Church. We have put together a short act of worship which will be live from 10.50am tomorrow morning where we will be able to remember safely from home.","Boston, England",+,52.9770408,-0.0239836
35,mcassieP,"() Decrease in Hospitalizations for COVID-19 after Mask Mandates in 1083 U.S. Counties authors have withdrawn this, cause now increase in these counties","Miami,FLA",,25.683721,-80.158603
36,WorldCOVID19,(+) WALES. Public Health Wales. 32 more deaths. Number of suspected COVID-19 deaths* reported to PHW. Announced on Saturday. #coronavirus disease 2019 (COVID-19) #COVID19 #Wales,United Kingdom,+,25.2232283,55.1594933008754
37,fedemaxiperu,"(-) ..sacrificing about 40% of its usual annual revenue, but selling tickets for some seats and suites would allow teams to recoup at least a little of that lost revenue. Of course, if a COVID-19 vaccine is approved and becomes widely available at some point in 2021, the NBA could..","Toscana, Italia",-,45.6790179,9.3115737
38,FlareCP,(+) NYC Firefighters And EMS Were 15 Times More Likely To Have Had Covid-19,LATAM,+,-12.0218423,-77.1086837
39,AaronIsaacs69,() I swore Matt gaetz got covid-19 months ago,Minneapolis,,44.9772995,-93.2654692
40,Deimos_Anomaly,"() RIP Covid-19 (November 2019-November 3,2020)",Location,,39.2138905,-79.6371124
41,inquirerdotnet,"(+) Six more Filipinos abroad have been infected with the coronavirus disease, increasing the total COVID-19 cases among Filipinos overseas to 11,423. | @consinq",Makati City,+,14.5591272,121.0202094
42,franksnstein,() The United States leads the world in COVID-19 cases and deaths.,"Dallas,Tx",,32.7762719,-96.7968559
43,AguluNwoke,"(+) Japanese Yen May Rise on Covid-19 Lockdowns, Trump Legal Challenges","England, United Kingdom",+,52.7954791,-0.540240286617432
44,RegulationsBot,() Additional Policy and Regulatory Revisions in Response to the COVID-19 Public Health Emergency @CMSGov,United States,,39.7837304,-100.4458825
46,slep41,(+) White House chief of staff Mark Meadows tests positive for COVID-19 via @USATODAY,"Deerwood,MN",+,46.4735725,-93.8988695
47,JoanGralla,() Opinion | How North Dakota became a covid-19 nightmare - The Washington Post,New York City,,40.7306458,-73.9866136
48,Swintonlad3,(+) @JayEdResists @dbtclctor2 We're pleased to report that COVID-19 is resting comfortably and should make a full recovery,United States,+,39.7837304,-100.4458825
49,Mujtaba_ch1,"(+) @inoumanwrites @hamzashafqaat But the issue right now is in the educational institution of Islamabad, there are covid-19 positive cases came out , we should think about safety first and try not be emotional .",PAKISTAN,+,30.3308401,71.247499
50,BCDemea,() U.K.: Two terminals will close at Manchester Airport from 11 November during COVID-19 lockdown,EMEA,,-2.3917722,121.5230074
51,TravelOnADream,"(+) We are all dreaming of travel. Where is the first place you are going to go to when Covid-19 is finally over?!?!? No matter where you want to travel to, contact ToaD at vacations@travelonadream.com to book your travel needs. #travelonadream #travelgoals #ToaD #adventureawaits","DeForest, WI",+,43.2477691,-89.3437277
52,infomcml,() The Manitoba Crafts Museum and Library Trivia Night is only a week away. It's being hosted by Zoom - so it's 100% Covid-19 Restriction Compliant. Do you have your tickets yet. Only $12.50 for individuals and $50 for a team of 4.,1-329 Cumberland,,36.1929877,-86.6723704
53,EvanDalka,() @MagicJohnson @UncleBuds_Hemp Why are we making tech deals with China??? Their must be retribution for the irresponsible actions of releasing COVID-19 on the world!!!,"Torrance, CA",,44.9955309,-79.5692407
54,DCarlosPhipps,"(+) @jsolomonReports her social media. Facebook quickly issued a strike to her account because ‚Äúthey said only information that they agree with about COVID-19 ... was acceptable,"" she said. Her account has since been demonetized, preventing her from using the page as a source of income.","Lehigh Acres, FL",+,26.6040585,-81.6581333096742
56,AntibodyEngIC,() This joint Informa Connect and @Pharma_Intell report reveals the perspective of #pharma professionals around deal-making during COVID-19 and the commercial ramifications of the pandemic,"Boston, MA",,42.3602534,-71.0582912
57,TommyBeer,"(+) For the third consecutive day, the United States has set a new world record for the most Covid-19 cases recorded in a single 24-hour span, with more than 132,700 new cases on Friday. The U.S. is now AVERAGING 109,683 new cases per day this week.",New York,+,40.7306458,-73.9866136
58,talklandscape,"(-) #LIJournal mobile reads How green is our recovery? It's vital that our economic recovery from COVID-19 addresses this, by investing in green, nature-based infrastructure. @publicbenemy reflects on the LI's recently published Greener Recovery paper.",Great Britain,-,14.5530372,121.1143249
59,ElizaMarphy123,(-) Here‚Äôs How COVID-19 May Impact Your Mental Health,"Ohio, USA",-,40.2253569,-82.6881395
60,J2daMd,"(+) Loud mouth science-denier gets COVID-19 and wants to keep it quiet so he can stick to his rant, out of control superspreader","Lebanon, TN",+,36.2079779,-86.2910945
61,BusterHighman9,(+) @future_fangirl @florian_krammer COVID-19 isn't a virus. It's the disease which is caused by the SARS-CoV-2 virus. But I'm sure you already knew that. *(sarcasm),Uranus ,+,60.2009107,24.8242259
63,womenspowergap,"(-) ‚ÄúThe COVID-19 crisis could set women back by half a decade,‚Äù resulting in ‚Äúfar fewer #womeninleadership‚Äîand far fewer women on track to be future leaders. All the progress we‚Äôve seen over the past six years could be erased.‚Äù #GenderParityNow","Massachusetts, USA",-,42.3788774,-72.032366
64,world_covid19,"(+) Coronavirus in B.C.: Records shattered as B.C. announces 1,120 new COVID-19 cases from the weekend | CTV News #CoronavirusOutbreak #CoronaVirusUpdates via @ctvnews",WORLDWIDE,+,53.5120412,-2.2434612
65,RichardGEarl,() COVID-19 reduces public dimension of Remembrance Day commemorations,"Nanaimo, BC",,49.1637594,-123.9379719
66,WorldCOVID19,(+) @BBCWalesNews WALES. Public Health Wales. 32 more deaths. Number of suspected COVID-19 deaths* reported to PHW. Announced on Saturday. #coronavirus disease 2019 (COVID-19) #COVID19 #Wales,United Kingdom,+,25.2232283,55.1594933008754
67,AugFreePress,(+) The Central Shenandoah Health District will hold free COVID-19 testing events throughout the district next week.,"Waynesboro, VA",+,38.0652286,-78.9058876592407
68,TheFederal_in,() RBI Governor recovers from COVID-19,India,,22.3511148,78.6677428
69,Gppw55George,"(+) Three days in a row over 100,000 new cases of Covid-19 in America. I think you need an intervention sonny boy.",Chandler Arizona,+,33.3067132,-111.8408489
70,jeremy_hume,"(+) @BCDemea The so-called new normal, in which Boris J dictates how many people you can interact with, is dystopian. Our country has become a police state. Am I the only one who is genuinely more worried about government overreach than COVID-19 (a condition with a 99.5%+ recovery rate)?",Oxford,+,51.7520131,-1.2578499
71,TxMBRS,"(+) Thanks for bringing this to my attention @ashofficial ‚ù§Ô∏è The 3M #ExcludedUK taxpayers need a lifeline and the Chancellor of the Exchequer, Mr Rishi Sunak must act. Petition: One-off Grant To Be Paid To Anyone Who Has Not Benefited From A Covid-19 Scheme",United Kingdom,+,25.2232283,55.1594933008754
72,AjisebioyoGsm,"() Covid-19: Oyo urges vigilance in tertiary institutions, religious centres, workplaces The Oyo State COVID-19 Task Force has directed the management of schools, workplaces and religious centres to ensure strict compliance with established... Read more&gt;&gt;&gt;","Oyo, Nigeria",,8.2151249,3.5642897
73,reinildo,"() Entra na minha casa, entra na minha vida... No infections among 56,000 people who traveled abroad after receiving Sinopharm-developed COVID-19 vaccine: developer - Global Times","Feira de Santana, Bahia",,-12.2578934,-38.9598047
74,briandalynj,"(+) Well, damn, I thought COVID-19 was going to magically go away once the election was over. Maybe they have to finish counting votes to make the virus magically disappear? Stop the count?",New Jersey,+,40.0757384,-74.4041622
75,TrimbleRodger,(+) Matt Gaetz tests positive for Covid-19,"Perth, Western Australia",+,-31.9527121,115.8604796
76,TalyaJW,"(+) Interesting read about how therapeutics are trying to be developed for #COVID19 - Fauci, NIAID Look to Past to Inform Future of COVID-19 Therapies @medpagetoday","Toronto, Ontario, Canada",+,43.653963,-79.387207
77,EastmanLewis,(+) I know some peoples may not like this but I am praying for President Trump I think he realizes that he let his ego got the best of him in some situations President Trump did some good things in his 4 years he did but his handling of race related issues an Covid-19 issues was bad,tuscaloosa alabama ,+,33.2668398,-87.4862182
78,newsshala2,"(+) UK PM Boris Johnson mentions Ram, Ravana in COVID-19 address, says Diwali teaches us that light triumphs over darkness, good over evil",panipat,+,29.3912753,76.9771675
79,quietpublicity,"() @EricTrump The CON is over The lies are over The bigotry is over Covid-19 deaths to be tackled properly. Russia's meddling is over Abusing women is over. Rebuilding our economy started on the 3rd America has spoken, advise daddy to move out and move on.",Monaco,,43.63071345,7.47616101640138
80,LabourHannah,"(+) @artisannes @OWandsworth Current lockdown says ' Non essential shops must close', businesses need support from the Local Authority regarding rates. The A24 issue shouldn't be an issue in lockdown. Combating Covid-19 and keeping everyone alive is a lot more important. If we all die, the A24 won't matter!","London, England",+,51.5073219,-0.1276474
81,esb_FI,() From the archives... How We‚Äôre Physical Distancing During the COVID-19 Pandemic,"Vancouver, British Columbia",,49.2608724,-123.1139529
83,MelanieMaine,"(-) @JenniferJJacobs @tylerpager @MarioDParker Wherever Trump goes, Covid-19 follows. He‚Äôs a super spreader who refuses to stop getting people sick. Yet almost half the country voted for him. I just don‚Äôt get it.","Maine, USA",-,45.709097,-68.8590201
84,DailyQudrat,(-) Chuadry shujaat tested negative for Covid-19 - #pakistan #PTI #PMLN #paknews #PMIMRANKHA...,Pakistan,-,30.3308401,71.247499
85,canada_hcouncil,() Insufficient healthcare measures and what needs to be done to stop COVID-19 in Canada,Montreal ,,45.4972159,-73.6103642
86,ShaShaFaithwalk,"(-) @realDonaldTrump Where was all this energy to fight COVID-19 and all the deaths. How about the families who lost their jobs or homes! Its always about you and your needs! Your DONE!! PACK YOUR SUITS, TIES, AND LACE FRONT HALF WIGS AND BEAT IT!! We had enough.. you see the numbers going up!","Newark, NJ",-,40.735657,-74.1723667
87,MPSEnfield,"(+) Officers will be out patrolling across #NorthArea this weekend. We will continue to engage with people proportionately, fairly and with common sense, using the well-established 4Es approach to support the new Covid-19 regulations. 1. Explain 2. Engage 3. Encourage 4. Enforce",Enfield,+,51.6520851,-0.0810175
89,usask,(+) ICYMI: COVID-19 research got a boost at @VIDOIntervac at #USask thanks to new equipment that will ‚Äúprovide a critical dimension to our current efforts to understand disease and develop treatments.‚Äù,"Saskatoon, SK",+,52.131802,-106.660767
90,geral_hammonds,(+) @benrileysmith Tens of millions of people are going to get covid-19 just like they caught H1 N1. The sooner that is accepted the better.,"Bogalusa, LA",+,30.7910204,-89.8486858
92,spcbsnfratsor,"(+) The COVID-19 Pandemic has bequeathed tantamount entailing dilemmas to all edges of the globe. As we all know, Frontliners are at high risk of getting infected by the corona virus since their field of work requires interaction with people. +++",Davao City,+,7.22650725,125.454887691355
93,Interasma,"(+) Top story: COVID-19 and COPD: a narrative review of the basic science and clinical outcomes | European Respiratory Society , see more",worldwide,+,53.5120412,-2.2434612
94,gl33p,"(+) Where does my mind go with Thanksgiving? Right after our foolishly filled schools and colleges and universities let out? That Thanksgiving? Dark places. Where families have traditional gatherings, in almost every state, the most popular Thanksgiving side dish will be covid-19 üòû","Madison, WI",+,43.074761,-89.3837613
95,NewhamLondon,(-) #RemembranceSunday services will be different this year due to Covid-19 restrictions &amp; national lockdown. The annual parade at Newham Town Hall has been cancelled but a small service will be broadcast on Sunday morning on: #NewhamRemembers,London Borough of Newham,-,51.52999955,0.0293179602938221
96,Connectigreg,"(+) @MarkMeadows @realDonaldTrump Your COVID-19 diagnosis is something akin to the frosty, creamy sweet icing on the ""Make America Great Again"" cake - right, sir?","Connecticut, USA",+,41.6500201,-72.7342163
97,MalumeTemba,(+) The slow pace is pardonable! it's mostly a reflection of commendable efforts states took to protect their residents from COVID-19 as well as high voter turn out. In 2016 it took them a day to tally 115 million votes+. In 2018 it took us more than 3 days to tally 4 million votes.,Zimbabwe,+,-18.4554963,29.7468414
98,MamuduElijah,(+) @wizkidayo You said something of getting married this year but with the whole Covid-19 stuff I know that is not possible anymore but is it something we should be expecting very soon Or it just normal cruise level? #AskWizkid #MadeinLagos,"Abuja, Nigeria",+,9.0643305,7.4892974
100,TB_Times,"(-) Tampa General leader Dr. Andrew Myers says patients in his COVID-19 unit lately are sicker, and many have no idea where they contracted the virus. ‚ÄúIf we don‚Äôt see a change in trajectory, we could see a very difficult time coming forward,‚Äù Myers says:","St. Petersburg, Florida",-,27.7703796,-82.6695085
101,LabourHannah,"(+) Current lockdown says ' Non essential shops must close', businesses need support from the Local Authority regarding rates. The A24 issue shouldn't be an issue in lockdown. Combating Covid-19 and keeping everyone alive is a lot more important. If we all die, the A24 won't matter!","London, England",+,51.5073219,-0.1276474
102,iElielSepulchro,"(+) White House officials were aware of chief of staff Mark Meadows' COVID-19 diagnosis earlier this week, despite him being seen without a mask () (#followback) (#siguemeytesigo) (#business) (#news)",Asgard,+,69.6590243,18.9134319
103,Heerak4Congress,"(+) BREAKING NEWS! VIRGINIA has 2,103 new cases in 24 hours! As Heerak predicted, Virginia experiences COVID-19 spike after Halloween üéÉ parties &amp; Trick-or-Treating! @ArlingtonVA @AlexandriaVAGov @fairfaxcounty @FallsChurchGov @GovernorVA See pinned tweet!","Arlington, Virginia",+,38.8903961,-77.0841585
104,HoneydippedC,"(+) Due to covid-19 I am doing a quick givaway of $1000 to the first 400 people to like and retweet this ( drop your cashapp , zelle, or venmo to get paid ) üñ§üí∞ü•≥","Brooklyn, NY",+,40.6501038,-73.9495823
105,HammertimeAgain,"(+) US coronavirus: New Covid-19 deaths have topped 1,000 for four straight days as infections soar Hmm It seems we ARE still talking about the #coronavirus after the #elections aren't we? So much for that theory #MoronInChief ü•∫ü§îüò∑üôè",NJ,+,40.0757384,-74.4041622
106,JCorduroy,"(-) @MidniteMirth @DownieSeb I think it's called ""@mattgaetz Gets FUCKED RAW by COVID-19 and @realDonaldTrump""","Portage, MI",-,42.2011538,-85.5800022
107,Mecoy,"(+) Oklahoma reports 1,045 COVID-19 related hospitalizations, including 312 people in intensive care. Both numbers are near all-times highs. Meanwhile, OKC hospitals are working together to deal with the surge.",Oklahoma City,+,35.4729886,-97.5170536
109,Sha_Elise24,"(-) @msleen1970 I believe this too. Almost a quarter million people are gone because of his negligence during this pandemic and 70+ million people didn‚Äôt give a fuck. If there was no COVID-19 or if people didn‚Äôt lose jobs over this pandemic, he definitely would have won re-election.",KC,-,52.5526566,-1.8830861
110,KennethHitchner,(+) 3 Buyer Insights to Consider When Engaging B2B Buyers In a COVID-19 World,"New Jersey, USA",+,40.0757384,-74.4041622
111,NunatsiaqNews,"(+) Qikiqtani #Inuit Association offers $1,000 per family for COVID-19 relief: #Inuit org reduces size of individual benefit to reach more people | Nunatsiaq News #nunavut","Iqaluit, Nunavut",+,63.7585754,-68.5604284
112,Scrappy_Pro,(+) White House chief of staff Mark Meadows tests positive for COVID-19 via @CBSPolitics,"Pennsylvania, USA",+,40.9699889,-77.7278831
113,sandranursing,(-) COVID-19 Shortages Prompt Tough Decisions at Bedside via @medscape,"South Carolina, USA",-,33.6874388,-80.4363743
114,MPSHaringey,"(+) Officers will be out patrolling across #NorthArea this weekend. We will continue to engage with people proportionately, fairly and with common sense, using the well-established 4Es approach to support the new Covid-19 regulations. 1. Explain 2. Engage 3. Encourage 4. Enforce","Haringey, North London",+,51.6014893,-0.1116958
115,gra1967,"(+) @Fla_Pol @mattgaetz @michaelgwaltz Who, this @MattGaetz who has mocked the COVID-19 crisis has tested positive for COVID-19","Tampa, Fl",+,27.9477595,-82.458444
116,jdepstein,"(+) 47 in isolation, more than 160 quarantined in Covid-19 spike at Niagara University via @TheBuffaloNews","Buffalo, N.Y.",+,42.8867166,-78.8783922
117,JohnsonBeverlyE,"(+) While Tater Head @tatereeves is fretting that his beloved state of MS will NEVER have mail in balloting because it is ""chaos,"" another 1031 Covid-19 cases were just reported for Friday, 967 the day before on Thursday, and a whopping 1,612 on Wednesday. @JxnFreePress #COVID19",United States,+,39.7837304,-100.4458825
118,apoliticalgal,() üò•üò• COVID-19 has not disappeared. üò∑üò∑,United States,,39.7837304,-100.4458825
119,lttemple2,(-) @Laurie_Garrett @JimBrya68704905 Its past 11/3 and COVID-19 still has not magically gone away.,"Arizona, USA",-,34.395342,-111.7632755
120,NicoleSGrigg,"(+) BREAKING: Arizona is adding 2,621 new COVID-19 cases today. And, adding 38 deaths. This is more than 700 cases from just one week ago. #COVID„Éº19 #covid19","Phoenix, AZ",+,33.4485866,-112.0773456
121,umichdpss,"(+) Although the weather will be beautiful today and tomorrow, remember that COVID-19 is still on the rise nationwide. Be vigilant and follow health and safety protocols. For more information about @wcpublichealth emergency order:","Ann Arbor, MI",+,42.2681569,-83.7312291
122,globeandmail,"() Western Canada: Alberta, B.C., set records for COVID-19 infections as Kenney rules out lockdown",Canada,,61.0666922,-107.9917071
123,CBCPEI,"() COVID-19 on P.E.I.: What's happening Saturday, Nov. 7 #pei",Charlottetown,,46.234953,-63.132935
124,halftim62615236,() Covid-19 vaccination news,United States,,39.7837304,-100.4458825
125,gro_tsen,"(-) One of the intriguing and unexplained characteristics of the second covid-19 wave in Europe is that we are seeing a number of ‚Äúsecondary peaks‚Äù, wobbles if you like, in the data.","Paris, France",-,48.8566101,2.3514992
126,RogueWcpss,(+) @NickStevensHSOT You find COVID-19 funny?,"Cary, NC",+,35.7882973,-78.7811925
127,zimbabwedaily,"() As malaria season begins, COVID-19 complicates issues","Harare, Zimbabwe",,-17.831773,31.045686
129,JJREILLY3,() DeSantis office ‚Äòleaks‚Äô Florida records to fuel COVID-19 death ‚Äòconspiracy‚Äô,Florida,,27.7567667,-81.4639835
130,fredwalton216,"(+) @MrMBrown @PriapusIQ Today‚Äôs adventure in scheduling, likely the result of the latest (third wave) of COVID-19 cases running wild at the White House, which hit CoS Mark Meadows and associated aides and staffers.",Pennsylvania,+,40.9699889,-77.7278831
131,Tvbona,(+) We REALLY need to examine turnout demographics by state and district against COVID-19 impacts and voting access before we say one more damn thing about who won where.,"Goshen, IN",+,41.5824086,-85.834366
132,ActivistPost,"(+) As with the first set of #lockdowns in the spring, the restrictions meant to curb the renewed spread of Covid-19 in Europe are happening fast and all at once.",The Blacklist,+,45.535193,-122.6419613
133,sparksjls,"() 5,077 Americans have died from COVID-19 since your dad lost his re-election bid on Tuesday.","Washington, D.C. ",,36.29885175,-82.3591933141095
134,bruinsfan1975,(+) West Hartford‚Äôs new GastroPark a space to join food trucks and diners in the era of COVID-19,New England,+,52.5934191,-0.2491985
135,Philly_Voter,(-) I‚Äôd like to offer my thoughts and prayers to the COVID-19 strain that is unfortunately having to endure living in the body of @mattgaetz,"Philadelphia, PA",-,39.9523993,-75.1635899
137,satishatx,() @DWUhlfelderLaw And Covid-19 is in quarantine from Gaetz.,"Austin, Texas",,30.2711286,-97.7436995
138,LibsInAmerica,() I don‚Äôt think Matt Gaetz is laughing about Covid-19 now that he has it.,United States,,39.7837304,-100.4458825
139,MisiahTaib,"(+) What is the current situation? üá≤üáæ COVID-19 risk in Malaysia is high. Over the last 14 days, new cases of COVID-19 in Malaysia increased. CDC recommends travelers avoid all nonessential international travel to Malaysia",Malaysia,+,2.3923759,112.8471939
140,dkiesow,() Seems like the President‚Äôs strategy to magically cure COVID-19 by losing the election has failed. Or maybe we just need to count faster.,University of Missouri,,38.94429415,-92.3264788076508
141,metsfansince02,"() There were 132,000 cases of COVID-19 in the US yesterday.","New York, USA",,40.7306458,-73.9866136
142,EvanDalka,(+) @MagicJohnson @UncleBuds_Hemp Why are we making deals with China right now??? There must be retribution for the irresponsible actions of releasing COVID-19 on the world!!!,"Torrance, CA",+,44.9955309,-79.5692407
143,SexyRebel2017,"(+) Matt Gaetz has COVID. I don‚Äôt wish COVID-19 to anyone, but I won‚Äôt lie, this made me smile.",United States,+,39.7837304,-100.4458825
144,VOJay_Pgh,(-) Danielle Allen: What Do COVID-19 and Extreme Inequality Mean for American Democracy? - Harvard Magazine via @AddThis,"Pittsburgh, PA.",-,40.4416941,-79.9900861
146,ALGovAffairs,"(+) COVID-19 reveals how obesity harms the body in real time, not just over a lifetime | PhillyVoice","Montgomery, AL",+,32.3669656,-86.3006485
147,PareeSass,(-) @jackshafer Like a bad case of Covid-19,North of Crazy,-,50.9396085,7.0189212
149,LuvofHearts,(-) @joncoopertweets He‚Äôs either very sick with COVID-19 or is stirring his witches brew of hateful DOJ prosecutions for next 2 months! @Bill19293640,Illinois,-,40.0796606,-89.4337288
150,ground_uncommon,(-) @CharlesBenson4 Is this the same half that doesn't accept that the COVID-19 infections are real? The same half that refuses to wear masks?,United States,-,39.7837304,-100.4458825
151,plymouthcc,"(+) Here are the latest COVID-19 figures for Plymouth and there's 79 new cases reported Please do your bit to help us all stay safe. Stay at home, wash your hands, wear a face covering and keep your distance from others.",Plymouth,+,50.3712659,-4.1425658
152,DefendWindrush,"(+) The world could learn a lot from how Africa is handling Covid-19 A young population, high burden of infectious diseases and expertise gained from HIV left Africa well-placed in the fight against Covid-19",United Kingdom,+,25.2232283,55.1594933008754
153,Lafcurve,"(-) This Panic Porn is classic &amp; to hear state officials say people aren‚Äôt wearing masks is false - I‚Äôd say it‚Äôs 90% + compliance- they don‚Äôt want to accept masks don‚Äôt work. Minnesota's COVID-19 situation is dire, and too few are taking steps to stop it","Minnesota, USA",-,45.9896587,-94.6113288
154,Bin_Yusuf_Alr,(+) @tosin_ayoko @mrmacaronii @PoliceNG Me too my state Government paid my school fees and also give scholarship and benefitted from covid-19 loan of about 2m and waiting for survival fund for my company and my employee by this I have to say that 9Ja IS GREAT. LONG LIFE FEDERAL REPUBLIC OF NIGERIA,"Aliero, Kebbi, Nigeria",+,12.287684,4.471219
155,BristolCouncil,"(+) @DawnParry @NorthBristolNHS Hi Dawn, bicycle shops are permitted to stay open during lockdown, provided they follow COVID-19 secure Guidelines. Please see the latest info on the government website for more details:",Bristol,+,51.4538022,-2.5972985
156,Dave_Alton,(+) Episode 7 | Social Antics üëá We talk: üéß Why TikTok &amp; Sony‚Äôs licensing deal has business model implications üõ∏ AirBnB‚Äôs IPO and why now? ü§≥üèª The Trip Advisor business model - adapting to change üç∫ Transforming space in a world of Covid-19 Listen:,"Cork, Ireland",+,51.8979282,-8.4705806
157,EnriqueThoughts,"(-) I really can't make any moves yet, because of this stupid ass COVID-19 virus ü§¶üèΩ‚Äç‚ôÇ","Charleston, SC",-,32.7876012,-79.9402728
158,photoriphy,"(+) Reports: Matt Gaetz, Michael Waltz test positive for COVID-19","Tallahassee, FL",+,30.4380832,-84.2809332
159,pickettjessica,(-) I‚Äôve been fangirling this study since the very first preprint iteration in May. One *very* important implication is that pediatric COVID-19 severity may be partially explained / mediated by recent ‚Äúcommon cold‚Äù coronaviruses &amp; so could change in response to circulation patterns.,"Pittsburgh, PA",-,40.4416941,-79.9900861
160,ThisIsKingsport,"(+) Whether you have enjoyed the #ChristmasConnection for years or you‚Äôre visiting for the very first time, this incredible artisan and craft fair will have something for you. COVID-19 guidelines will be observed at this FREE event. #ThisIsKingsport","Kingsport, TN",+,36.550238,-82.5594293
161,Footballghana3,(-) Three Hearts of Oak players test positive for COVID-19 before the GPL opening game.,"Accra, Ghana",-,5.5600141,-0.2057437
162,bluevirginia,(+) It's irresponsible a**holes like Meadows who are heavily responsible for the fact that COVID-19 in this country is out of control.,Virginia,+,37.1232245,-78.4927721
164,CityofSanPablo,(+) Join us today from 9-3:30 at West County Health Center in San Pablo for a no-cost COVID-19 test and flu vaccine. Everyone is welcome!,"San Pablo, CA",+,37.9621457,-122.3455263
165,Naijawhatsup,(+) Trump‚Äôs chief of staff tests positive for COVID-19 ‚Äî Reports,Nigeria,+,9.6000359,7.9999721
166,OmmcomNews,(-) With nearly 30 groups actively involved in development or collaboration or co-development and trials for the Covid-19 vaccine in India and five among them in the clinical stage of development #Odisha #OdishaNews #OmmcomNews,"Bhubaneshwar, India",-,20.26912755,85.8458772774523
167,RadioClydeNews,(+) 19 staff members and 24 residents at the Fairview facility near Stirling have tested positive for Covid-19 this week. A further 7 are showing symptoms and are self isolating.,"Glasgow, Scotland.",+,55.856656,-4.2435817
169,JenniferM8s,() @malika_imani @meli788O @PastorDScott See also: COVID-19,"Kansas City, MO",,39.100105,-94.5781416
170,sdbast,() Tory Covid-19 blunder opens opportunity for Universal Credit scammers,Sussex England,,50.94468065,-0.06192935288129
171,margotroosevelt,"(+) Trump Chief of Staff Mark Meadows, who has not been wearing a mask, was diagnosed with COVID-19 which has killed more than 236,000 Americans so far","El Segundo, CA",+,33.912594,-118.383179
172,TenaLorraine,"(-) @KimReynoldsIA are you seriously blind or what lady. People are dying and you will be voted out just like your buddy @realDonaldTrump has. With infections and deaths surging, Reynolds says election ‚Äòvalidates‚Äô her COVID-19 response via @sentinel_press",Iowa,-,41.9216734,-93.3122705
173,KZ_AfterHours,(+) @BudgetBen Leading an economic recovery + COVID-19 Vaccine + not forcing through a gigantic controversial healthcare bill would be a nice recipe for success.,"Aurora, IL",+,41.7571701,-88.3147539
174,SimmoRj,"() @trickysjoyboy @Lrihendry It's over Trump lost because he is incompetant. There it s truth in 74+ million Biden votes and 240,000 Covid-19 deaths.","Utah, USA",,39.4225192,-111.7143584
175,The_Boldman,(+) @ChristoDoyle @Gold_Rush I would be interested to know... What impact has Covid-19 had on gold mining in general?,"Plymouth, England",+,50.3712659,-4.1425658
176,hollisings2,(+) You are so right! The leading cause of Covid-19 is DENIAL. #KKKarma #TrumpVirusDeathToll230K,West Coast,+,-42.9945669,170.7100413
177,tmoncho,() The 3rd outbreak of Covid-19 in a White House still in denial.,"New York, NY",,40.7306458,-73.9866136
178,xoKaylaNicole,(+) Coronavirus: Missouri poll worker dies after working election while positive for COVID-19,"Boston, MA! *Boston Strong*",+,42.3299668,-70.955879
179,OurNewsRev,"(+) 31 NEW COVID-19 CASES REPORTED YESTERDAY: The Bahamas Ministry of Health is reporting 31 new Covid-19 cases yesterday. 66 recoveries were reported yesterday. There have been 6,947 confirmed COVID-19 cases in The Bahamas since the start of the pandemic.","Nassau, Bahamas",+,25.0783456,-77.3383331
180,ENHHCharity,"(+) üöπ MEN‚ÄôS HEALTH WEEK üöπ ‚ÄúI know many men don‚Äôt like to go to the doctor and COVID-19 may make things scarier for everyone, but it is so important to get checked out.‚Äù An important message from Lister patient Duncan McLean Click through to read his story on the @enherts website","Lister Hospital, Stevenage,",+,51.92443385,-0.212154744394166
181,OurNewsRev,(+) There are now a total of 152 COVID-19 related deaths. The latest victim is a 66-year-old man from New Providence who died November 6th. There are now 55 hospitalized cases; four patients are being treated in the Intensive Care Unit.,"Nassau, Bahamas",+,25.0783456,-77.3383331
183,SharkIslandJP,"(+) #SharkIsland(with Richard Black and Chris Heilmann!) is back to rock and roll in 2020 with a NEW album ‚ÄúBloodline 2.020‚Äù with a special song composed in the middle of the COVID-19 pandemic. Available on Friday, Nov. 13, 2020 from @DekoEntertain!",Japan,+,36.5748441,139.2394179
184,vickilscott20,(+) Pritzker in isolation after possible exposure to COVID-19 such a drama queen. This is the new ‚ÄòI don‚Äôt feel like going to the office for 2 weeks‚Äô I thought masks and social distancing worked? #Scamdemic,you never know. ,+,41.7122971,-85.9652958
185,RichardGEarl,() Coronavirus: UK bans Denmark visitors over mink Covid-19 fears,"Nanaimo, BC",,49.1637594,-123.9379719
186,karimaPhD,"(+) @PHE_NorthWest @lpoolcouncil As from today, Please be aware that you should NOT undertake a COVID-19 test in Liverpool #LetsNotGetTested #Notsick #DontObey",London,+,51.5073219,-0.1276474
187,DazedWheels,(-) WV Covid-19 update is now 10 minutes late. ü§î,USA,-,39.7837304,-100.4458825
189,DNRamki,() #RT @emaindian: Dr. Sean Downing from Sarasota Memorial Hospital joins us to present the evolution of COVID-19 from his experience in Florida. #EMINDIA2020,India,,22.3511148,78.6677428
191,Xy5Z89,(-) but the number of Covid-19 diseases has risen so sharply since September that experts warned that the underfunded Slovak health system would be overburdened.,"Deutschland, EU ",-,51.2825747,7.9936039
192,wufandmew,(+) New 'mask up MN' website aims to expose fraud of COVID-19 crisis via @alphanewsmn,USA,+,39.7837304,-100.4458825
193,stefanofait,"(+) #Bergamo was one of the epicenters of Europe's Covid-19 outbreak. Now thousands protest against new restrictions. The fear is gone, people want things to go back to normal. NOW. #Italy #coronavirus #COVID19 #protests #Europe #Curfew #lockdown",Italy,+,42.6384261,12.674297
195,Rima76019904,(-) Covid-19 may make people's tinnitus worse,"California, USA",-,36.7014631,-118.7559974
196,msjingold,"(+) A1. By creating empathy with our Ss &amp; promoting community involvement. Talking to them about local issues, challenges and promoting solution mindedness. Having Ss continue to feel connected to family, school &amp; community is esp. important right now during isolation of COVID-19","Bay Shore, NY",+,40.7250986,-73.2453946
197,CovidPlasmaIn,(+) @hbdsofficial @24helloblood @BloodAid @BloodConnection @BloodDonorToday @GiveBloodNI @Indianbloodhelp @bloodconnectorg @ELister_social Hey hbdsofficial - Consolidated list of available resources to match COVID-19 plasma recipients and donors Daily COVID-19 trends as of 07 Nov 08PM üáÆüá≥: +ve: 17638üîΩ Recovery: 18352üîΩ Death: 290üîΩ Tot. Active: 513902üîΩ TPR (L7D Avg): 4.22üîΩ #DonatePlasmaSaveALife,"Gurgaon, India",+,28.48895715,77.0107837846576
198,BostonGlobe,"(+) Lamenting that too many communities have their kids learning remotely, Governor Charlie Baker said Friday that the state was upgrading its metrics for determining COVID-19 transmission risks, with an eye toward getting more students back in classrooms.","Boston, MA",+,42.3602534,-71.0582912
199,KentSmalley,"() From Pain Device to Approved Pandemic Treatment, nVNS System Improves Airflow in COVID-19 Patients - Pain Medicine News","Edmond, OK",,35.6571367,-97.4649038
200,manishransubhe,(+) Kai Havertz breaks silence on Chelsea recovery after testing positive for COVID-19,"Pune, India",+,18.5203062,73.8543185
201,jongrimson,() @SteveSchmidtSES @realDonaldTrump Downfall but with Covid-19,"Nashville, TN",,36.1622296,-86.7743531
202,IrmaSebastiano,() How to work with your mortgage broker during COVID-19,"Niagara, Ontario",,43.05023,-79.12038
203,eltjepink70,(-) Native American health center asked for COVID-19 supplies. It got body bags instead. via @nbcnews,"New York, NY",-,40.7306458,-73.9866136
204,buzzdotie,(+) Garda√≠ reportedly generally high levels of compliance with COVID-19 restrictions,"Dublin, Ireland",+,53.3497645,-6.2602732
206,fazaam2awesome,() @realDonaldTrump Covid-19 vaccine?,Aruba,,12.5013629,-69.9618475
207,wchealthdept,"(+) Flu season is here! Don‚Äôt let this COVID-19 sidekick get you down, #SleeveUp and get a flu shot to be a flu fighter and hero of your own health! #FightFlu","New York, USA",+,40.7306458,-73.9866136
208,MauroOrru94,(+) The second wave of Covid-19 spreading across Italy and Europe has largely spared one of the spring‚Äôs worst-hit Italian cities.,"Barcelona, Spain",+,41.3828939,2.1774322
209,cass_lyons,"() No one should be on the streets this winter, let alone with Covid-19 cases rising. Tell the Government to bring people off the streets. Sign this from @UKLabour.",London and Kent,,51.48451165,-0.0699335905437419
210,AnthonyAshton1,() Of course because posh twats are immune to Covid-19 aren‚Äôt they?,Norwich,,52.628606,1.29227
211,JordanLeandre55,(+) How nice of Governor Baker to remind us of the business hours of COVID-19,"Cape Cod, MA",+,42.0484483,-70.2209848302983
212,BallewJenny,(+) Well it is what it is nothing will ever be the same learn a new career sales has been tanking way before the Covid-19 pandemic Way Way before,Independence MISSOURI ,+,39.0924792,-94.4137923
215,fishas0607,"() While the US is focused on the election, the Covid-19 pandemic keeps growing ‚Äì CNN",Êó•Êú¨ Êù±‰∫¨,,35.6828387,139.7594549
216,nextdoorpotato_,() my dumbass who thought the entire COVID-19 chaos would end before June.,"Selangor, Malaysia",,3.2083304,101.304146
217,CatEyezGreen_,"(+) Matt Gaetz, Michael Waltz test positive for COVID-19",California (via Barcelona) ,+,33.7524255,-117.0141935
218,govsingapore,(+) Here‚Äôs the 7 November update on the COVID-19 situation in Singapore For more:,Singapore,+,1.357107,103.8194992
219,karimaPhD,"(+) As from today, Please be aware that you should NOT undertake a COVID-19 test in Liverpool #LetsNotGetTested #Notsick #DontObey #Liverpool #Liverpooltesting",London,+,51.5073219,-0.1276474
220,nageshspardhi,(+) I am proud to have contributed to India's fight against COVID-19 by donating to #PMCARES. Join the movement &amp; contribute at ..! #IndiaFightsCorona,"Tirora, India",+,21.4066143,79.928673
221,Great9ija,(+) 15 deaths and 528 novel cases of Covid-19 confirmed in Northern Ireland,United Kingdom,+,25.2232283,55.1594933008754
222,betsypud,"(+) @PeterMatza @ViolinKitty @MATatBucks @PeterMatza COVID-19 spreads from person to person. Limiting contact with other people reduces the spread. Only essential retail eg food is allowed to be open. Fabric is not essential, being open encourages more interaction between people and puts us all at greater risk",Buckinghamshire,+,51.75,-0.75
223,EngGujaratEx,(+) Gujarat COVID-19 Update: 1046 new cases #coronavirus #COVID19 #CoronavirusPandemic #coronavirusupdate #CoronavirusOutbreak #Gujarat,Ahmadabad Gujarat,+,23.0216238,72.5797068
224,BeachHead_,"(+) @ybouysran @onikasgivenchy P.S. Not only are Democrats more in favor to vote by mail in ballots, ***WHICH HISTORY HAS SHOWN*** they also fear Covid-19 (unlike republicans) so they are the most likely to use mail in ballots. Use your head, use facts not feelings...like the republicans like to say.",Paradise ,+,36.1150858,-115.1734142
225,TOIMumbai,"(+) Maharashtra adds 3,959 new Covid-19 cases; 150 die, 6,748 recover",Mumbai,+,18.9387544,72.8352382
226,Journalgirl,(-) Every article about @mattgaetz contracting COVID-19 that doesn‚Äôt use this photo is missing a swing,"Georgia, USA",-,32.3293809,-83.1137366
227,mclaughlinanne1,(-) @markbishopuk @EdConwaySky COVID-19 is a virus. It‚Äôs not a political situation. It‚Äôs unknown and unpredictable. The political parties should forget their egos and have a united approach. The ‚Äòchosen‚Äô medical advisors should also think very carefully about the advice they give. There‚Äôs no finale yet.,Glasgow,-,55.856656,-4.2435817
228,HaitianAllStarZ,() Haiti - COVID-19 : Message of sympathy from the Consulate of Haiti in Paris,"New York, NY",,40.7306458,-73.9866136
229,FreightNews,"() Third-party Logistics Market Analysis, COVID-19 Impact,Outlook, Opportunities, Size, Share Forecast and Supply Demand 2021-2027|Trusted Business Insights - The Think Curiouser",London,,51.5073219,-0.1276474
230,IntelligentCash,"(+) Coronavirus update: Kenya records 1,065 new COVID-19 cases","Nairobi, Kenya",+,-1.2832533,36.8172449
231,CNanolab,(+) Great Initiative: COVID-19 Immune Atlas ‚Å¶@karolinskainst‚Å©,"Lisbon, Portugal",+,38.7077507,-9.1365919
232,AAULYP,"() COVID:FREE COVID-19 Testing to the communities of Austin! Come see us every Tuesday, Thursday, and Saturday: 9am-1pm &amp; Wednesdays: 3-7pm at 1400 Tillery Street, Austin, Texas üèôÔ∏è . Inquire about COVID-19 financial assistance ON-SITE! Eligible candidates c‚Ä¶","Austin, TX",,30.2711286,-97.7436995
234,elry2009,"(+) @mattgaetz who mocked COVID-19 months ago, now has the virus which i guess is worrisome because this proves it can leap to other species",knoxville,+,35.9603948,-83.9210261
235,madhatrecon,(-) BREAKING NEWS!!!! Covid-19 has Matt Gaetz. Our thoughts and prayers are with Covid as they deal with this terrible virus,Montreal,-,45.4972159,-73.6103642
236,RadioRewindUK,(+) Extra Funding Available To Help Groups Support People During COVID-19 #RRNews,"Chesterfield, North Derbyshire",+,53.2352134,-1.4264097
237,MauroOrru94,"(-) In Russia, exhausted ambulance crews are falling ill with Covid-19 and wait times are growing to 24 hours or more as infection rates hit new highs.","Barcelona, Spain",-,41.3828939,2.1774322
238,Biswaji39516992,"(+) UK PM Boris Johnson mentions Ram, Ravana in COVID-19 address, says Diwali teaches us that light triumphs over darkness, good over evil | In Hindi.",India,+,22.3511148,78.6677428
239,Heerak4Congress,"(-) COViD-19 is spreading like wildfire in USA because @NatlGovsAssoc under @NYGovCuomo leadership is not taking COViD-19 seriously! @usmayors @OurMayors Every state can have at least 60,000 COViD-19 deaths by June 2021. @DemGovs @DemMayors See pinned tweet!","Arlington, Virginia",-,38.8903961,-77.0841585
241,SFCovidTestWait,(+) The wait for a COVID-19 testing appointment from CityTestSF as of 7:11 AM is: SoMa: No appointments available! Embarcadero: 12 days,"San Francisco, CA",+,46.8443248,-71.2743272
242,razingarizona,"(+) üö®#SpreadAlert Arizona: 2,621 new cases of covid-19 reported.",85701,+,32.2223567310433,-110.964856894688
244,WLYeung,"(+) @MW08758848 Western Australia has been managing COVID-19 exceptionally well too. Following Kristof's logic, we must be a Confucian society of mask-wearing people .... üò∑ü§î...",Perth,+,-31.9527121,115.8604796
245,DARRELLJSTRADER,() @joncoopertweets Probably recovering from COVID-19 and they just didn‚Äôt inform us,"Miami, FL",,25.7742658,-80.1936589
246,tecnobrat,() @KellyMeeker The title of this chapter in the year 2020 is titled: Matt Gaetz COVID-19,"Vancouver Island, British Columbia",,49.59294945,-125.702556961241
247,TeamShermanHSV,(+) What inspired actions are you taking to keep a positive mindset during the COVID-19 pandemic? Kathy Sherman #RE/MAX of Hot Springs Village,"Hot Springs Village, AR",+,34.665341,-93.0012525405306
248,CamprnAdams,() What it‚Äôs like to be a school nurse during the COVID-19 pandemic via @GMA,"Keene, NH",,42.933597,-72.2784264
249,dmuleicester,"(+) We're pleased to be part of this national pilot, which has the potential to make a real difference in the fight against Covid-19 across the country üî¨ü¶† We'll be sharing details about how students and staff can book a test early next week üòä",Leicester,+,52.6361398,-1.1330789
250,GowthamreddyC,() Congratulations to @isro on Launching PSLV EOS-01. Even during Covid-19 times Your Efforts Continues to give Glory To India.. #EOS01 #ISRO,"Anantapur, India",,14.55,77.416667
251,jmhaigh,"(-) @brianstelter And COVID-19 getting exponentially worse. Why the @CNN embargo, Brian? Where is @drsanjaygupta hiding? If you can get the secret ‚ÄúFox Memo‚Äù on coverage, why can‚Äôt you bother to find out why your own network ignored the Pandemic for +96 straight hours? SRSSLY @ReliableSources ?","emmaus, pa",-,40.5395421,-75.4968502
252,SPENCERGROUPINF,() Report: NFL considering expanded playoff as COVID-19 contingency via @YahooSports,"Seattle, WA",,47.6038321,-122.3300624
253,TelenkoTweets,(+) I do suspect it is the simpatico to the pretend-COVID-doesn't-exist approach explanation. Many Places Hard Hit By COVID-19 Leaned More Toward Trump In 2020 Than 2016,"San Francisco, CA",+,46.8443248,-71.2743272
254,LewdRadar,() Just learned today another person I know it's going to be put into a nursing home because covid-19 to put them into a vegetative state,sadness,,41.5060559,-81.6997118452595
255,AlbanyUpdate,() State Bar's Final Vote on Mandatory COVID-19 Vaccination Set for Saturday,"Albany, NY",,42.6511674,-73.754968
256,NicoleSGrigg,(+) We just hit 2K cases for the first time this week since the summer surge. This is around 500 more cases than we saw two days ago. COVID-19 is spreading quickly in Arizona.,"Phoenix, AZ",+,33.4485866,-112.0773456
257,RChesterz,"() COVID-19 conditional movement control order reinstated across all states in Peninsular Malaysia, except for Perlis, Pahang and Kelantan","Cameron Highlands, Pahang",,4.4781693,101.3776004
258,JordanLeandre55,"() @jmoran8996 COVID-19 has business hours, Jack. Didn‚Äôt you know?","Cape Cod, MA",,42.0484483,-70.2209848302983
259,Dwarkatimes,() 50% slot for Covid-19 as Delhi govt adds 685 beds in 14 private hospitals - Times of India,"Dwarka, New Delhi",,28.5742819,77.0653509
260,tcoleman1210,"(-) No Surprise to me, in my opinion this is the worst administration in the history ever! I have watched so many people that I love due to COVID-19 and this Administration has done nothing nothing to try to stop it!!!!!!",USA ,-,39.7837304,-100.4458825
261,MatthewAEverett,"(-) Yesterday's American COVID-19 deaths (11/6): Almost 1,200 people dead. So let's put the BLB stage of 99 with the 1,100 seat Guthrie house. That was yesterday. If we want to see theater or our friends in person again, things need to change. (Also, theater itself needs to change)","Minneapolis, MN",-,44.9772995,-93.2654692
263,DPValley,(+) Sweden's approach Land of the mask-free ‚Äì The real lessons from Sweden‚Äôs approach to covid-19,Arizona,+,34.395342,-111.7632755
264,1DamianCrawford,(+) How many more COVID-19 deaths do you think will occur became of you. Judging by the picture I suspect it will be many. Do you not feel guilty #AmericasGreatestMistake #F√ºhreroftheGop,Ravenswood Western Australia,+,-32.5810619,115.8364923
265,evan_gallette,"(+) Japanese Yen May Rise on Covid-19 Lockdowns, Trump Legal Challenges","Miami, FL",+,25.7742658,-80.1936589
266,nrmchairman,() Condolence message: Covid-19 snatches Makindye RCC Kagolola #StaySafe,"Kampala, Uganda",,0.3177137,32.5813539
267,MyZAcoza,(+) MyZA: Coronavirus ‚Äì Nigeria: COVID-19 case update (6 November 2020) 223 new cases of COVID19 in Ni,South Africa,+,-28.8166236,24.991639
268,jeffreymmiller,() #MassMurderer #realDonaldTrump staff COVID-19 outbreak grows to 5 cases ‚Äî and they tried to hide it from The American People,"Ridgway, CO",,38.1527685,-107.7617263
269,WakeUpAmerica70,(-) I feel bad for COVID-19 since it tested positive for @mattgaetz . I hope Nestor took precautions.,"Texas, USA",-,31.8160381,-99.5120986
270,FillerPolly,(+) 15 deaths and 528 new cases of Covid-19 confirmed in Northern Ireland. This is ridiculous. You know the United Kingdom was in charge,Ireland,+,52.865196,-7.9794599
271,49ersPaul,(-) Who else feels bad for COVID-19 that it contracted Matt Gaetz???,"California, USA",-,36.7014631,-118.7559974
272,rforroshni,(+) @sohitmishra99 Wonderful news coverage in COVID-19 phase.,"Jaipur, India",+,26.916194,75.820349
273,dianneirenes,(+) 11:11 covid-19 free,Ph,+,12.44249325,122.160395163807
274,Julesofthwood,() Vin Gupta Explains What You Can Do Now To Protect Against Covid-19 | The... via @YouTube,"Alabama, USA",,33.2588817,-86.8295337
275,kajooho,() @RepVernonJones Who needs Covid-19 when we have you threatening to shoot us.,Pacific Northwest,,40.737599,-73.254814
276,Carolinagal14,() The Meta-Lessons from COVID-19 via @RANDCorporation,"Austin, TX",,30.2711286,-97.7436995
277,brdavissr,"(+) Hey Matt Gaetz, have a bleach martini. I hear that it's a great cure for Covid-19 per @realDonaldTrump üòÇüòÇüòÇüòÇ","Van Alstyne, Texas",+,33.4214995,-96.5772109
278,DailyMirror,(-) UK bans foreign visitors from Denmark after outbreaks of Covid-19 in mink farms,UK,-,54.7023545,-3.2765753
279,limbert65,() Des Moines hospitals warn they could be overwhelmed if COVID-19 keeps soaring via @DMRegister,Northwest Iowa,,43.49250355,-74.3556449826306
280,Tetrisnet,"(+) @joncoopertweets Conspiracy theorists say, Barr will have News soon, he's working on Indictments of Clinton, Obama, Biden - Russian connections - 2 investigations - Treason - Trials. Trump wants him to bring Democrats undone. Others say he's got Covid-19 ? Surprises for everyone ?",Australia,+,-24.7761086,134.755
281,namiswwa,"(-) Never have our mental health system‚Äôs shortcomings been clearer. According to a recent poll, 8 in 10 Americans say that COVID-19 has impacted their mental health, with many being unable to get the help they need.","Vancouver, WA",-,45.6306954,-122.6744557
283,NFLonSP,(+) Ravens activate six more from COVID-19 reserve list,United States,+,39.7837304,-100.4458825
284,JCSura,"(+) U.S. Sets Daily COVID-19 Record With More Than 126,000 New Cases","San Salvador, El Salvador",+,13.6977587,-89.19301
286,thesentimes,() RBI Governor recovers from COVID-19,INDIA,,22.3511148,78.6677428
287,zerocostcar_nl,() Automotive Rental Service Market Size And Forecast (2020-2027)| With Post Impact Of Covid-19 ...,Greece,,38.9953683,21.9877132
288,bay_bulletin,"(+) PORT ELIZABETH - CORONAVIRUS INFECTION TEMPORARILY SHUTS DOWN HUMEWOOD POLICE STATION SAPS Humewood, the community service centre and the crime office are temporarily closed due to Covid-19 virus. Read more -","Eastern Cape, South Africa",+,-32.2171831,26.6386401
289,amkurdistani,(+) The first surprise on my birthday: COVID-19 positive,KURDISTAN,+,35.672803,47.0124376
290,agreatbigcity,() Restaurants review COVID-19 restrictions and forecasts,New York City,,40.7306458,-73.9866136
291,GSMMEDIATEAM,"() Covid-19: Oyo urges vigilance in tertiary institutions, religious centres, workplaces ...as Task Force discovers COVID-19 case in college, locks in school","Ibadan, Nigeria",,7.3777462,3.8972497
292,SuziePeat,"() The BMJ interview: Chris Whitty, England‚Äôs chief medical officer, on covid-19 | The BMJ","England, United Kingdom",,52.7954791,-0.540240286617432
293,GSMMEDIATEAM,"() The Oyo State COVID-19 Task Force has directed the management of schools, workplaces and religious centres to ensure strict compliance with established protocols aimed at curtailing the Coronavirus disease.","Ibadan, Nigeria",,7.3777462,3.8972497
295,timesofrepublic,() Study finds aspirin reduces risk of death in hospitalized Covid-19 patients,Mumbai,,18.9387544,72.8352382
296,salsbee67,"(+) Covid-19 is now history, mission accomplished.",Lagos,+,20.0171109,103.378253
297,DromVladicZinn,"(+) U.S. breaks COVID-19 record for third straight day with over 126,000 new cases - CBS News via @GoogleNews",Brookings South Dakota,+,44.311461,-96.79844
298,JimMagdefrau,"() Local Covid-19 numbers for Nov. 7, 2020",Iowa,,41.9216734,-93.3122705
299,AmerPolitics,() OF COURSE USA TODAY: Trump chief of staff Mark Meadows has COVID-19,USA,,39.7837304,-100.4458825
300,zulekhahosptls,(+) Help stop the spread of coronavirus and stay healthy on your travels during the COVID-19 pandemic. Avail an exclusive PCR screening rate of AED 150 at Zulekha Hospital when you travel with Air India or Air India Express. #Covid19 #Coronavirus #TravelSafe #AirIndia,UAE,+,49.4871968,31.2718321
301,PortlandTalksME,() Maine urges caution at schools as COVID-19 spreads in state ‚Äì San Francisco Chronicle,"Portland, Maine",,43.6610277,-70.2548596
303,AFCChelmsford,() Offering Covid-19 Rapid Testing with results in minutes! Your Time Matters.,"Chelmsford, MA",,42.5998139,-71.3672838
304,DavidGMcGreevy,(+) Guess who also just tested positive for Covid-19 ?,"East Village, NYC.",+,40.7292688,-73.9873613
305,Ghnewsexpress,(+) Three members of Hearts of Oak test positive for covid-19,Accra - Ghana,+,5.5600141,-0.2057437
306,LambSteve,() Just another standard COVID-19 Saturday @HullCity,"Hull, England",,53.7435722,-0.3394758
307,pboateng953,"(+) üö®| Covid-19 Update Three people out of the Hearts of Oak team that went for corona test have tested positive, and have been referred to the appropriate quarters for isolation and treatment. üî¥üíõüîµ #AHOSC",Ghana,+,8.0300284,-1.0800271
308,VirusGeeks,() An Approach for Monitoring and Evaluating Community Mitigation Strategies for COVID-19,"San Francisco, California",,8.6545394,-73.3676149
309,bdoody42,"(+) @realDonaldTrump I hope this big press conference is to address 125k cases of Covid-19 across our great country. Who am I kidding, there is no way you‚Äôd actually address an issue that is affecting this entire country.","Maryland, USA",+,39.5162234,-76.9382069
310,JulianHeather1,"() Lib Dem-run Portsmouth City Council launches local Covid-19 contact tracing system, in collaboration with Public Health England.. Council staff will use their local knowledge to track people the NHS Test and Trace cannot find. #Portsmouth @portsmouthld","Streatham, South London",,51.429769,-0.1311105
311,seeorganic,() Lemurs might never recover from COVID-19 (commentary),"London, England",,51.5073219,-0.1276474
312,FreemontJane,(+) I guess I don't understand why we don't have government officials screaming their heads off about the covid-19 pandemic that is completely OUT OF control in United States???,"Portland, OR",+,45.5202471,-122.6741949
313,whitley8135,(-) I heard a white guy on CNN say they should allow Trump‚Äôs COVID-19 infested ppl to get closer than 6 feet to the vote counters. His dumb ass should get intubated since he wishes that on others. There is no law that says they get to breathe on ppl while they work. They are evil.,"Texas, USA",-,31.8160381,-99.5120986
314,Farajahum,"(+) Must watch Pls share &amp; comment : COVID-19 Predictive Programming 2012 London Games (Why Didn't We See This?) : Peekay : Free Download, Borrow, and Streaming : Internet Archive via @internetarchive",Under the Sky,+,53.01243735,-2.22335276522247
315,RobertHynes10,"(-) Fauci, NIAID Look to Past to Inform Future of COVID-19 Therapies","Pennsylvania, USA",-,40.9699889,-77.7278831
316,Archpolmar,(-) The COVID-19 RT-PCR Test: How to Mislead All Humanity. Using a ‚ÄúTest‚Äù To Lock Down Society via @grtvnews,Athens GR,-,35.7755627,-78.7203468541655
317,GSMMEDIATEAM,"() A statement on behalf of the Task Force signed by the Chief Press Secretary to Governor Seyi Makinde, Mr. @TaiAdisa, indicated that the advice became necessary following the discovery of a COVID-19 case in a tertiary institution in the state.","Ibadan, Nigeria",,7.3777462,3.8972497
318,ed_eldridge,"(-) Not sure @mattgaetz really has COVID-19 the guy is so desperate to fit in with Trump, he would fake it and change his name to Ricky. #MattGaetzIsATool",Down the rabbit hole.,-,-34.6924598,138.8898522
319,BITS336,(+) 45 headed to PA - 7 more Covid-19 Positive!,New Jersey,+,40.0757384,-74.4041622
320,MANDALGOPAL,(+) I am proud to have contributed to India's fight against COVID-19 by donating to #PMCARES. Join the movement &amp; contribute at ..! #IndiaFightsCorona,"West Bengal, India",+,22.9964948,87.6855882
321,PhDiSchoolSU,"() The Science That Spans #MeToo, Memes, and Covid-19 | WIRED","Syracuse, NY",,43.0481221,-76.1474244
322,BettyMcCollum04,(+) Need a COVID-19 test? Free testing is available every day of the week at Roy Wilkins Auditorium in St. Paul. Learn more &amp; make an appointment:,Minnesota,+,45.9896587,-94.6113288
323,AtlantaFed,(+) Is there a COVID-19 financial assistance program that's right for you? Get updated information on programs with our tips.,"Atlanta, Georgia",+,33.7490987,-84.3901849
324,macarthur54,(+) @StevijoPayne I'll continue as well. Ordered filters on line so I'll be adding those too. Whatever it takes. I understand the information is changing because the experts are learning more about Covid-19 so I don't complain when the updates contradict what we were originally told. It's 2020.,Earth,+,34.2331373,-102.4107493
325,KLCCEugeneOR,"(-) Today in KLCC News: As COVID-19 infections rise @OregonGovBrown announced ""pauses"" for some counties, @OregonState and @uoregon researchers are knocking on doors in Eugene this weekend to test for COVID-19, and it's game day for @pac12 football! LISTEN:","Eugene OR, USA",-,44.0505054,-123.0950506
326,680NEWS,"(+) #BREAKING: Ontario is reporting a record high 1,132 new cases of COVID-19 on Saturday.",Toronto,+,43.653963,-79.387207
327,dgermain21,"(+) As usual, another great episode, with more of the best COVID-19 discussions you'll find. And it was an honor to discuss CAR-T cell therapy for lymphoma with @VPrasadMDMPH for another JC with a fellow segment.","St. Louis, MO",+,38.6337716,-90.2416548
330,CityNews,"(+) #BREAKING: Ontario is reporting a record high 1,132 new cases of COVID-19 on Saturday.","Toronto, Ontario",+,43.653963,-79.387207
331,millerjj660,(+) @CNN Covid-19 pandemic largely fell out of view because the #MSM including #CNN don‚Äôt need it anymore to topple Trump. We will probably get some truthful reporting on it for a change. #EnemyofThePeople,"Cincinnati, Ohio",+,39.1014537,-84.5124602
332,bdoody42,"(+) @realDonaldTrump I hope this big press conference is to address 125k cases of Covid-19 across our great country. Who am I kidding, there is no way you‚Äôd actually address an issue that is affecting this entire country.","Maryland, USA",+,39.5162234,-76.9382069
333,MehanstarkNews,"(+) UK PM Boris Johnson mentions Ram, Ravana in COVID-19 address, says Diwali teaches us that light triumphs over darkness, good over evil",Bhubaneswar,+,20.2603328,85.8393432
334,LesliePettie,(+) @lizard817 @BuckSexton @realDonaldTrump COVID-19 and also because these people should not be able to see any of the personal information on the ballot.,canada,+,61.0666922,-107.9917071
335,tultican,() COVID-19 Spiking again in San Diego County,San Diego,,32.7174209,-117.1627714
336,DeskRaven1,(-) Ugly Truth 52: Suicide Rates Are Rising Amid the Covid-19 Pandemic,"Spring, TX",-,30.0798826,-95.4172549
337,JaStewrt,(+) Important Vin Gupta Explains What You Can Do Now To Protect Against Covid-19 | The... via @YouTube,"Austin, TX ",+,30.2711286,-97.7436995
338,rock_golf,"(-) Hey, @realDonaldTrump, the number of Americans who caught COVID-19 due to your utter negligence since election day would be sufficient to reverse the results in PA, AZ, NV &amp; GA combined. If only you gave a goddamn about anyone but yourself, you could have won.","Brampton, Ontario, Canada",-,43.6858146,-79.7599337
339,TrentCapelli,"() In a change of pace, Matt Gaetz tests for COVID-19 instead of DUI.","Toronto, Canada",,43.653963,-79.387207
340,olddike,"(+) Days after winning the World Series, the Dodgers have five positive Covid-19 cases",wnc,+,55.8525304,-133.2292283
341,moosechris,(+) Kudos to them for investing but underscores need to increase supply chain robustness &amp; component supply transparency &gt; A key ingredient in what could be the first U.S.-approved Covid-19 vaccine comes from an Austrian family-owned company with 90 employees,"Austin, TX",+,30.2711286,-97.7436995
342,TracyNovick,"(+) ""As of July 11, 45 children from 40 schools and kindergartens were diagnosed with COVID-19 after off-line classes started. More than 11,000 students and staff were tested; only one additional student was found to be infected in the same classroom.",The heart of the Commonwealth,+,42.6721345,-71.1494082
344,buzzdotie,(+) Garda√≠ reported generally high levels of compliance with COVID-19 restrictions,"Dublin, Ireland",+,53.3497645,-6.2602732
345,Archpolmar,(-) The COVID-19 RT-PCR Test: How to Mislead All Humanity. Using a ‚ÄúTest‚Äù To Lock Down Society via @grtvnews,Athens GR,-,35.7755627,-78.7203468541655
346,KituisFinest,() @Ali_Manzu Covid-19 wrecking havoc,Nairobi,,-1.2832533,36.8172449
347,BlackburnLife,"() ""I never thought it would happen to me"": Blackburn mum of two shares Covid-19 video diary","Blackburn, Lancashire, UK",,53.7623203,-2.60254231435014
348,emykamallive,(+) @RichardDawkins I don't know about the article and those particular verses because I am not learned regarding those particular verses however I do know first hand what I dreamt of was 100 percent about covid-19,"New York, USA",+,40.7306458,-73.9866136
349,CTVToronto,(+) #BREAKING: Ontario has recorded another record-breaking number of new COVID-19 cases.,"Toronto, Ontario",+,43.653963,-79.387207
350,kvanscoywxii,(+) Meadows tests positive for Covid-19 along with several others from the Trump administration.,"Winston-Salem, NC",+,36.0998131,-80.2440518
351,FrankFromDaBoot,(+) Do you really expect anything else from the Trump White House? The Trumpians believe that Covid-19 is just a hoax and if Democrats vote that it's a fraud.,"Louisiana, USA",+,30.8703881,-92.007126
352,grjenkin,() COVID-19 testing: Difference between revision - found via @cronycle,"Carrollton, TX",,32.9537349,-96.8902816
353,SWright58,"() @Jon_statistics @SepsisUK @CMO_England @uksciencechief @MattHancock In Birmingham we only have stats for UHB NHS Trust, the largest in England. At this time there are 379 COVID-19 Pos inpatients of which 37 are in ICU/HDU.","Birmingham, England",,52.4775396,-1.894053
354,UmerMukhtarWWE,() Coronavirus experts say the world will never see the COVID-19 vaccine,"Karachi, Pakistan",,25.147872,67.1821931713384
355,MephsM,"(+) Beyond frightening...üò∑ SALT LAKE CITY ‚Äî Utah recorded 17 resident deaths in the state's battle with COVID-19 just as the state broke a day-old record with the number of cases with 2,987 new ones confirmed by test in the last 24 hours.","SLC, Ut.",+,40.7900661,-111.979898461856
356,OnePrideDE,(+) I'm doing anything to prevent me and my family from getting COVID-19 but even if the Staffords tested positive (which they don't) I would have put on a mask and helped. I know that the situation in the USA is different to Germany but don't forget about each other in these times.,Minden,+,52.2881045,8.9168852
357,WIRRALGLOBENEWS,() Further death with Covid-19 at Arrowe Park hospital,Wirral,,53.3409714,-3.0500916
359,freekev22,"(+) @StevenBeschloss Yep. A deep clean. With the COVID-19 outbreak in the Trump administration, a complete disinfection of the WH. The Bidens' should not move in until March. It make that long to throughly clean the place",Twin Cities,+,38.2910251,-121.31106
360,PJaminator,(+) Shortly the entire Trump administration will succumb to COVID-19 and the diabolical democratic plot will the complete. Biden will roll into DC in a self-driving car to socially distanced crowds and victory. ‚úä‚úäüèΩ‚úäüèª,San Francisco Bay Area,+,37.7884969,-122.3558473
362,cravi,() Peter Brindley: Covid-19 fatigue and ‚Äúmasking‚Äù how we feel - The BMJ,Coyoac√°n,,19.32804005,-99.1510634069359
363,WendyFerris12,(+) White House chief of staff Mark Meadows tests positive for COVID-19,"New Brunswick, Canada",+,46.500283,-66.750183
364,IAMDONNASUZETTE,"(-) Between the past stay at home orders, quarantining, delays due to Covid-19 &amp; the election results, I think we‚Äôve mastered the skill of #patience this yearüíã","Atlanta, GA",-,33.7490987,-84.3901849
365,gutter_hero,(+) @EW FERRIS BUELLER'S DAY OUT: The boomers ignore Covid-19 precautions to go around town endangering their health and the health of those around them Will make a great horror movie!,Boggy Creek,+,28.347292,-81.318775
366,OldWhiteGal1,"(+) Excellent question. @realDonaldTrump , where is the vaccine. It's November 7, and Covid-19 did not disappear on the 4th.","Frederick, CO",+,40.0991506,-104.9371993
368,NSEupdate,(+) Kwara records two new cases of COVID-19 #NSEUPDATE,"Abuja, Nigeria",+,9.0643305,7.4892974
369,gadgetmanjay,"(+) Tech Update: The US went more than 2 months before amassing its first 200,000 COVID-19 cases ‚Äî its latest 200,000 have come in just the past 2 days ...Let's Discuss? #digitaltransformation #digitalstrategy #digitalworkplace","Nottingham, UK",+,52.9534161,-1.1492773
370,Solitude_Steve,(+) Nobody is talking about this really but we should keep an eye out in Denmark and how they found covid-19 has mutated in minks and now millions of them are going to be eliminated. #2020 #COVID„Éº19,"Los Angeles, CA üá≤üáΩüá∏üáªüá∫üá∏",+,34.054935,-118.244476
371,isnotpolitics,(+) Kwara records two new cases of COVID-19,Africa,+,2.0000003,15.9999997
372,pmnewsnigeria,() Gov. Lalong lauds COVID-19 research team in Plateau,"Lagos, Nigeria",,6.4550575,3.3941795
373,ozzfus3,() @JoeBiden A split and deeply divided nation. Had it not been for Covid-19 the results would be flipped. How Biden and Harris behave will either begin the bridge or create resistance.,"Kentucky, USA",,37.5726028,-85.1551411
374,Sean_L_Brooks,(+) President Trump's chief of staff Mark Meadows tests positive for COVID-19,"Randallstown, Maryland",+,39.36909865,-76.7959596423594
376,olddike,(-) Don't get a false sense of security with Covid-19 testing. Here's why you can test negative but still be infected and contagious,wnc,-,55.8525304,-133.2292283
377,costapoker,(+) Which is a bigger shame for @gop politicians? You Testing positive for Covid-19 hoax or your unwed teenage daughter testing positive for pregnancy?,"Ohio, USA",+,40.2253569,-82.6881395
378,Candlelighters_,() @jashford77 @cnnbrk No worries Covid-19 is a #trumphoax,Florida,,27.7567667,-81.4639835
379,azxwalton,(+) White House chief of staff Mark Meadows tests positive for COVID-19 via @GMA,"Des Moines, IA",+,41.5910641,-93.6037149
381,SkolGriswold,(+) Covid-19 down to only three things trending in the far back... also read an article last night that said it may be safe to go to concerts during Covid...hmmmmm,The Underground,+,35.468384,-97.5145648
382,meredithvegeta1,(-) @TeaPainUSA @mattgaetz As you can see covid-19 loves stupid people,ky,-,37.5726028,-85.1551411
384,alxstep,() COVID-19,"New York, NY",,40.7306458,-73.9866136
385,stevemann,"(-) Indeed. Dumb ASS!! But hey, other than him is anyone really surpised? #karmaisabtch Trump chief of staff Mark Meadows tests positive for Covid-19 via @msnbc","Connecticut, USA",-,41.6500201,-72.7342163
386,rparrawong,() 2/(06/11) COVID-19 #Chile üá®üá±,Sudam√©rica,,-34.4779627,-58.7398675
387,CaffeineSociali,"(+) Get the orange fascist out of the White House! ""For the third consecutive day, the United States has set a new world record for the most Covid-19 cases recorded in a single 24-hour span, with more than 132,700 new cases on Friday""",Treaty 7,+,29.3509933,-98.4026121
388,rparrawong,() 3/(06/11) COVID-19 #Chile üá®üá±,Sudam√©rica,,-34.4779627,-58.7398675
389,UsLiberate,(-) @SenSchumer Where‚Äôs your stupid daily COVID-19 testing post? Dem-panic over? Asking anonymously. I don‚Äôt want to end up on AOC‚Äôs gulag list.,Inman SC,-,35.0470617,-82.0901088
390,rifnote,(+) Kai Havertz breaks silence on Chelsea recovery after testing positive for COVID-19 -,"Lagos, Nigeria",+,6.4550575,3.3941795
391,rparrawong,() 4/(06/11) COVID-19 #Chile üá®üá±,Sudam√©rica,,-34.4779627,-58.7398675
393,AlWomackFL,(+) @yourhonorsir @Chicago1Ray @realDonaldTrump @Jim_Jordan @TheJusticeDept New Covid-19 cases = Distraction while they count more ballots to try to win. #Distraction #ElectionFraud,"Jacksonville, FL",+,30.3321838,-81.655651
394,RunwayGirlBecca,() ICYMI: COVID-19 lounge food precautions improve BA #PaxEx #avgeek #aviation #travel,Oro medonte Ontario,,44.5445701,-79.5628295462922
395,nibor1955,() 'Government by decree - Covid-19 and the Constitution': Lord Sumption via @YouTube Everyone should watch this. What this government is doing in the midst of #COVID„Éº19 is shameful. Freedom is valuable,London,,51.5073219,-0.1276474
396,PaulCogan,"(+) U.S. Sets Daily COVID-19 Record With More Than 126,000 New Cases",Toronto,+,43.653963,-79.387207
397,oXxRowanxXo,(+) Oh no...Matt Gaetz COVID-19 positive....,New York,+,40.7306458,-73.9866136
398,GlobefactNews,(+) COVID-19 antibodies could last 6 months or more: study,United States,+,39.7837304,-100.4458825
399,OfficialBaba_D,"(-) @btsportfootball @TheDesKelly Ole Gunnar Solskjaer should understand that COVID-19 is not an excuse to continue losing. Every player, fan and manager in the world witnessed the COVID-19 and if you are defeated, it wasn‚Äôt angels that played against you, other players from this planet earth did. Wake up!","Owerri, Nigeria",-,5.489736,7.0341973
400,Heerak4Congress,() You can get COVID-19 while shopping! @GiantFood @Walmart @superfreshgrwrz @WholeFoods @Costco @7eleven @Kmart @FoodLion @shoppers @Shoprite_SA @NPRFood @foodbankmetrodc @WFPUSA @WaPoFood @FDAfood @CDCgov @WHO @NHS @HarvardChanSPH @BBC See pinned tweet!,"Arlington, Virginia",,38.8903961,-77.0841585
401,Pharma_Trader,"(+) @iancassel @AlexBest1985 Excellent tidbit, Ian. I was just thinking about how millions were EASILY made pharma trading bio run-ups just a decade ago, and now, the E/V revolution, tech, covid-19 stocks etc... rule the world. Adapting &amp; overcoming is how I continue to make $$$. Planning ahead is key!",United States,+,39.7837304,-100.4458825
402,cherbic555,(+) Covid-19 : The Great Reset -search on Google. Unless we fight back -this is heading our way. Be warned!,Oxford,+,51.7520131,-1.2578499
403,AFCWatertown,(+) COVID-19 means double trouble this flu season. What you should know about both heading into winter: For more information click on the link: #coronavirus #covid19 #flu,"Watertown, MA",+,42.3709299,-71.1828321
404,wendyc78757,"(+) @ananavarro As soon as there is a vaccine and COVID-19 has calm down, my friends and I are going to take a trip to Philadelphia. I‚Äôve never been there and I‚Äôve always wanted to visit.üá∫üá∏üíôüòä","Dallas, TX",+,32.7762719,-96.7968559
405,GritSuccess,(+) Skills to Develop during the Covid-19 Lockdown These are unusual times. The global experience of the Covid-19,"Ibadan, Nigeria",+,7.3777462,3.8972497
406,Bill19300155,"(+) U.S. Sets Daily COVID-19 Record With More Than 126,000 Cases. We are still talking about covid ‚Å¶@realDonaldTrump‚Å©",Central Ohio,+,40.2253569,-82.6881395
407,sbanks44,() Petition: Fully fund schools for Covid-19 costs and provide relief for loss of income,York,,53.9590555,-1.0815361
408,cmbtimesnews,() Zahran‚Äôs wife gets Covid-19 treatment at Welikanda hospital #COVID19LK,Sri Lanka,,7.878,80.7038245875
409,Shakilomar,() EVERYONE EVERYWHERE URGENTLY NEEDS TO SEE THIS! The COVID-19 Genocide of 2020 via @BitChute,"Alberta, Canada",,55.001251,-115.002136
410,whitneyclarktv,"(+) And a reminder that COVID-19 didn‚Äôt just go away. More than 2,600 cases added in Arizona today #azfamily","Phoenix, AZ",+,33.4485866,-112.0773456
411,NewsEverything_,(+) COVID-19 Information: Dwell Updates ‚Äì The New York Instances ‚Äì #NewsEverything #NewYork,All over the World,+,33.80842345,-117.92002488054
412,cheryl_fahling,"(+) Covid-19 ü¶† Newsbites ü¶† US set staggering daily case record of more than 120,000 infections ü¶† @MarkMeadows reportedly tested positive ü¶† Coronavirus cases at US colleges hit a quarter million More ‚û°Ô∏è #Covid-19 #masküò∑ #stayhome",Northeast Indiana,+,40.3270127,-86.1746933
415,Suraksha_Pinnu,"() @epigiri says that the testing rates decrease as you move away from urban areas, as a result of which numbers may be lower. Our weekly Covid update: 'Coping with Coronavirus', where each week we look at one Covid-19 story. This week, we look at falling Covid cases @shankarsview","Bengaluru, India",,12.9791198,77.5912997
416,GrubenPamela,() @mattgaetz @ChrisDJackson This is a lie and a last ditch effort to discredit the Biden campaign. I hope you wear a mask to prevent the spread of covid-19 to your family.,"California, USA",,36.7014631,-118.7559974
417,policeofficer,() Video: UAE police band plays musical tribute to Covid-19 heroes around the world,"San Dimas, CA",,34.1066756,-117.8067257
418,IrishTimesBiz,(-) Passengers from some EU states will not have to quarantine on arrival in the Republic from next week once they have a test showing that they are Covid-19 negative,Ireland,-,52.865196,-7.9794599
419,WABI_TV5,(+) Bus company on MDI suspending services through November 15th after employee tests positive for COVID-19,"Bangor, Maine",+,44.8011821,-68.7778138
420,georginatown,"(+) The Georgina Leisure Pool is open. There are various swim programs to keep you physically active, with COVID-19 safety protocols in place. Enjoy programs like parent and child swim, Aquafit &amp; lane swim. Pre-registration is required. For more info, visit","Georgina, Ontario, Canada",+,44.31781865,-79.3262724361787
421,southkesteven,(+) Those over 60 or clinically vulnerable could be at higher risk of severe illness from coronavirus. This is how to protect people more at risk from Covid-19 under the new UK-wide rules:,"Lincolnshire, UK",+,53.166667,-0.25
422,abiworld,() Is there a need for a need for a National Emergency Restructuring to emerge from COVID-19 disruption? Join international experts as they discuss the proposal and issues surrounding it at ABI's #IntInsolvForum on 11/18-20. Registered?,"Alexandria, VA",,38.8147596,-77.0902476527272
423,LinoCoria,() My seven-year-old is concerned that Santa Claus will bring COVID-19 to our house. She suggested we leave a facemask by the Christmas tree.,"Port Moody, BC, Canada",,49.283932,-122.829895
424,phishingorguk,() Ransomware Attacks Are On the Rise During COVID-19 #security #infosec #ransomware #malware #phish #datasecurity #cybercrime #databreach #cryptocurrency #gdpr #iot #hack #privacy #dataprotection #technology #cybersecurity #informationsecurity,"London, UK",,51.5073219,-0.1276474
425,CityPtbo,"(+) We all have an important role to play to protect ourselves and our community from COVID-19 . Always follow Peterborough Public Health guidelines üëâ #washyourhands often, keep your #physicaldistance &amp; #wearamask. Let's all do our part.",Peterborough ON,+,44.3048009,-78.3199496
426,FOX8NOLA,"(+) 1,031 new COVID-19 cases, 15 new deaths reported Saturday in Mississippi",New Orleans,+,29.9499323,-90.0701156
427,WTKR3,"(+) Virginia reports largest single-day COVID-19 case increase of 2,103 cases; Local areas report 305 new cases, 3 deaths","Hampton Roads, Virginia",+,36.9751474,-76.3496662
429,BDCitizen,"(+) I was a patient at Marshfield Medical Center, Beaver Dam, in the past week. I was admitted and found myself on the COVID-19 treatment floor. I watched the dedicated staff perform their duties cheerfully and exceptionally well.","Beaver Dam, Wisconsin",+,43.4577692,-88.837329
430,My_Chamber,"() On B2B @GregDurocher chats re: Ontario budget, COVID-19 &amp; U.S. election results with @La_Presse @jbellava. Also, @DTKitchener &amp; @uptownwaterloo reps issue shopping challenge. @CowanInsurance rep looks at financial wellness. Tune to @570NEWS Sunday at noon for all things business.","Cambridge, Ontario, Canada",,43.385339,-80.310402
431,usmccarterswife,() Grunt Style | Shop The F*ck Covid-19 Tee Bundle,USA,,39.7837304,-100.4458825
432,Stephen80209,"(+) US coronavirus: New Covid-19 deaths have topped 1,000 for four straight days as infections soar . Voting is not the issue - this is!","Chicago, IL",+,41.8755546,-87.6244212
433,beepbonkers,"(-) @aura_icy @hyckai @TreacyWolf i dont think you understand that NOBODY LIKES EITHER PRESIDENT. but america has had the worst handling of covid-19 in the world, your president is threatening to end democracy and attempting to sue states that wont stop counting w/ no proof they're violating anything.",‚ùó‚ùó SFW ‚ùó‚ùó,-,39.2421433,44.3034086
434,NancyAdairB,"() The Literate Quilter: Covid-19 Life: Jitters, #TBR shelf, The Fur-grandkids","Michigan, USA",,43.6211955,-84.6824346
435,HamletHubRidge,() CT in Phase 2.1 due to rise of COVID-19 @CTRidgefield Major changes under Phase 2.l Major ...,"Ridgefield, CT",,41.2814842,-73.4981792
436,BPeeples17,(+) Fingers crossed folks ü§û Health officials 'cautiously optimistic' a COVID-19 vaccine will be ready by early next year,"Cobourg, Ontario",+,43.963909,-78.169098
437,Tetrisnet,"(+) U.S. Shatters Single-Day Record of #COVID„Éº19 Cases again ! Topping 132,000 New Covid-19 Cases - Friday.",Australia,+,-24.7761086,134.755
438,AnilDixit49,(+) I am proud to have contributed to India's fight against COVID-19 by donating to #PMCARES. Join the movement &amp; contribute at ..! #IndiaFightsCorona,India ,+,22.3511148,78.6677428
439,Pia_Fidelis,(+) COVID-19 IN OC: REGION AT RISK OF MOVING BACK TO MOST RESTRICTIVE PURPLE TIER AS INFECTION RATE INCREASES,"LBC, California",+,34.9489489,-120.433693374942
440,sandyherr2,"(-) @tedlieu @realDonaldTrump Trump promised COVID-19 would be GONE Nov 4, Day after ELECTION. What Happened, Was Donald WRONG AGAIN","California, USA ",-,36.7014631,-118.7559974
441,graybarn41,(+) I do wish anyone who has contracted covid-19 a swift and complete recovery. But I can't help but see this as an allegory somehow...,Connecticut,+,41.6500201,-72.7342163
442,BrytonRobinson,() @SpaceCowboy928 that‚Äôs my money after being off for 2 weeks with no pay because my employer ended COVID-19 relief pay,flavor town,,40.0440149,-75.3878616
444,hhsgreen,(-) They said ND and SD were hot spots for COVID-19 but look at all that white space. Fake news.,"Missoula, MT",-,46.8700801,-113.9952796
445,InsPolitics,"(-) Covid-19 Has Killed 4,593 People In The US Since Election Day. Trump Hasn‚Äôt Mentioned It Once",London & Oxford,-,51.5497511,-0.1405303
446,irishexaminer,(+) New: Ireland will follow the UK in introducing a mandatory 14-day self-isolation period for people arriving from Denmark following an outbreak of Covid-19 in the country‚Äôs mink population,Ireland,+,52.865196,-7.9794599
447,MikeyWise123,"(-) Covid-19 Has Killed 4,593 People In The US Since Election Day. Trump Hasn‚Äôt Mentioned It Once",London,-,51.5073219,-0.1276474
448,JeffDStephens,(+) Interesting visualization showing the correlation between age groups. Young adults being the biggest spreaders of covid-19 across age groups.,"Washington, DC",+,38.8949549,-77.0366456
449,Beatgrrrl,(+) How L.A.‚Äôs Creative Economy Can Recover from COVID-19 to a More Equitable Place,"California, USA",+,36.7014631,-118.7559974
450,C21Westman,"(+) OPEN HOUSE TODAY! Saturday, November 7th, 1:00 - 3:00PM Facemask Required You are welcome to stop in for a tour of this beautiful home. COVID-19 Policy and Procedures are being followed. #homesforsale #realestate...","Brandon, Manitoba",+,49.8511143,-99.9608924
451,reader4lyf,"(+) @lucymcaldwell Well, it's a good thing they've all already been exposed to Covid-19 these last few days, so they won't have to worry about that.","Dayton, OH",+,39.7589478,-84.1916069
452,sauga960am,"() Tune into #BIGTALK today at noon as Karen and Ameek dive into everything political this week. Everything from Ford‚Äôs deficit focused budget, the mail-in ballot fiasco to determine the presidency, and Peel in the COVID-19 RED! @fordnation @JoeBiden @regionofpeel","Mississauga, Ontario",,43.590338,-79.645729
453,NBC12,(+) Twelve new COVID-19 outbreaks were reported statewide and two new deaths were reported in Central Virginia on Saturday.,"Richmond, VA",+,37.5385087,-77.43428
454,alabamawind,"() Wind farm study panel to begin meeting again #KS: OSWEGO ‚Äì The COVID-19 pandemic kept a committee studying wind energy in Labette County from having public meetings, but that work will continue soon based on direction from the Labette County Commission‚Ä¶","Windy Hill, Alabama, USA",,33.843937,-86.202382
455,whitneyclarktv,"(+) And a reminder that COVID-19 didn‚Äôt just go away. 2,621 new cases reported in Arizona today #azfamily","Phoenix, AZ",+,33.4485866,-112.0773456
457,WatchOurCity,() (CNS) MLB Won‚Äôt Punish Turner For On-Field World Series Celebration Despite COVID-19 #LosAngeles,California,,36.7014631,-118.7559974
458,sevronfoundaton,"(+) Congratulations to @ISRO on successful launch of EOS-01 and 9 international satellites from USA, Luxembourg and Lithuania. This important launch amidst crises caused by COVID-19 reflects the capability, perseverance and resilience of our scientists and engineers.","New Delhi, India",+,28.6141793,77.2022662
459,cnni,"(+) This week, as voters cast ballots and waited to see who would clinch the White House, the Covid-19 pandemic largely fell out of view. But the coronavirus continued to spread, in some places at a higher rate than ever before.",Everywhere,+,52.1366141,-0.4694972
460,jeremy_hume,"(+) @tosh_cox @YouTube The 'new normal', in which Boris Johnson dictates how many humans you can peacefully interact with, is dystopian. Our country has become a police state. Am I the only one who is genuinely more worried about government overreach than COVID-19 (which has a 99.5%+ recovery rate)?",Oxford,+,51.7520131,-1.2578499
461,ghostdansing,(+) Covid-19 Live Updates: Deaths Rise in 27 States as Virus Surges Across U.S. nyt 11.07.20,cyberspace,+,52.59425525,-2.12879795153547
463,Wexford_tweeter,() Coronavirus: UK bans Denmark visitors over mink Covid-19 fears,Ireland,,52.865196,-7.9794599
464,Holisticnewsli1,() COVID-19 Cases In U.S. Reach Record Highs Again,Kentucky,,37.5726028,-85.1551411
465,KhosoSaifullah,(-) @hamzashafqaat @hamzashafqaat acc: to my sources few other departments of NUML also had covid-19 positive cases! Please look into this matter seriously,"Quetta, Pakistan",-,30.1898158,67.019087
466,MadiGraceThomas,(+) Mom has Covid-19 (she‚Äôs doing good) Dad has the sweetest heart,"St Louis, MO",+,38.6337716,-90.2416548
467,JaviMoranta,() Why These Photographers Are Still Working During COVID-19 v√≠a @shutterstock,Palma de Mallorca,,39.5695818,2.6500745
468,CBCHealth,"() Albertans told to stop having parties, gatherings at home to bend COVID-19 curve",Canada,,61.0666922,-107.9917071
469,MrFilmkritik,"(+) Republican Matt Gaetz, catching COVID-19 after wearing a gas mask to mock the Coronavirus, is the icing on the cake to Trump's defeat.",Germany,+,51.0834196,10.4234469
470,TimEdwardsZero4,"(+) White House officials were aware of chief of staff Mark Meadows' COVID-19 diagnosis earlier this week, despite him being seen without a mask... No sympathy for these people. They don't deserve it.","Huntsville, AL ",+,34.729847,-86.5859011
471,CBCHealth,"(+) Winter will help COVID-19 spread more easily, experts say ‚Äî here's what they suggest you do about it",Canada,+,61.0666922,-107.9917071
472,NigNewspapers,() Gov. Lalong lauds COVID-19 research team in Plateau #Nigeria #NigeriaNews,London - UK,,51.5073219,-0.1276474
473,the_devik,() üö® Matt Gertz does NOT have COVID-19 üö®,"63.1650¬∞ N, 50.7379¬∞ W",,63.0893788,-50.6733023
474,PestCanadian,(+) Insect Pest Control Market: Poised For a Strong 2021 Outlook Post Covid-19 Scenario - TechnoWeekly,"Ontario, CA",+,50.000678,-86.000977
475,ketheesh_waran,"(-) @102Johnl @parkboy2019 @CNN @realDonaldTrump @JoeBiden If he cannot at least give such guarantee, why do you need him and why Americans have to put up with him? Already everyone except some confused Americans knows that he is a threat to USA. Very minimum he should give a guarantee that there will be no more Covid-19 related deaths","Cincinnati, OH",-,39.1014537,-84.5124602
476,mlangatt,"(-) @piersmorgan Misplaced priorities, just like they were caught pants down by covid-19 which forced people to vote by mail.",Kenyas,-,59.3385367,18.0681311
478,timescolonist,() Surging infections in Manitoba a COVID-19 cautionary tale: experts,"Victoria, B.C., Canada",,-37.1331216,-56.8830953
479,FRenee2,() @realDonaldTrump COVID-19 üö® ALERT,United States,,39.7837304,-100.4458825
480,jmetalblast,"(+) @Somethi23060044 @ggreenwald Not at all. And it's concerning how many on the left have encouraged silencing protesters that they disagree with, using covid as an excuse, while celebrating their own protests and demonstrations. COVID-19 is real, and all these assholes turned it political.",Acacia Avenue,+,53.07943835,-1.24970354830438
481,_tinrobot,(+) Breaking: COVID-19 has tested positive for Matt Gaetz. Our thoughts and prayers are with the virus in this troubling time. üôè,Upper Left,+,38.3389547,-106.5501146
483,Books4Christian,() Church Safety and Security ‚Äì COVID-19 Resources ‚Äì 10 things that every church must do,"Chicago, Il",,41.8755546,-87.6244212
486,fredwalton216,"(+) 1)Denmark, US, Italy, Spain, Netherlands, Sweden have reported new COVID-19 cases linked to mink farms, as per WHO. Danish Health authorities have expressed concern this strain, known as ""Cluster 5"", is not inhibited by antibodies to the same degree as the normal ü¶† ...",Pennsylvania,+,40.9699889,-77.7278831
488,NewHavenArts,"(+) As New Haven reels from a second spike in COVID-19 cases, restaurants and small food businesses are asking the city for more support. Get the scoop in our latest.","New Haven, Connecticut",+,41.3082138,-72.9250518
489,MothershipSG,(-) No new locations visited by Covid-19 patients in S'pore on Nov. 7,Singapore,-,1.357107,103.8194992
490,WorkWearingA22,(+) @RightWingWatch So many questions. Why didn‚Äôt the angels from Africa and South America fly here ahead of Nov. 4th? Do they fly commercial? Are they coming here to help with Covid-19 or just to help Trump? When they get here are they going to be counting ballots? Do they get free lodging?,United States,+,39.7837304,-100.4458825
492,Radioapparaten,(+) Poland reports new COVID-19 records,"K√∂penhamn, Danmark",+,55.6867243,12.5700724
493,SevenStarHand,"(+) 1/2 Here is my thread on strengthening immune systems to defend against viral infections like COVID-19, colds, flu, etc. It is vital to notice that after I started discussing this topic and details herein (see 6-10), Donald Trump overtly tried to discredit it by proxy with his...","Eugene, Oregon, USA",+,44.0505054,-123.0950506
494,NiklosStephan,(-) Was the USA 2020 elections not the actual reason for COVID-19 in the US context? Call me cynical but there is a strange connection. @haniefhaider,"Jozi, South Africa",-,-29.7366736,30.9708685
495,k29664911,(+) Blue Valley schools report record number of new COVID-19 cases ‚Äì KMBC Kansas City,America,+,-27.4351024,-59.0017622330522
496,natscookiejar,() Covid-19 has not gone away this week in #Arizona - where are you @dougducey ??,"Phoenix, AZ",,33.4485866,-112.0773456
497,edav38,"() @QHarleys Covid-19 does exist, it was an ingredient in last years Flu shots, is says so on the box the shots came in. The thing is, the Test Kits, Patented by Richard Rothschild, in 2015, inky Test for Antibodies, so IF you got the Flu shot, and your immune system Hasn't removed....",Berkley county SC,,39.8044307,-105.0260934
498,GowthamreddyC,(+) Congratulations to @isro on Launching #PSLVC49/ #EOS01 Carrying 9 Rockets to the Space. Even during Covid-19 Times Your Efforts Making INDIA Proud. Once Again Congratulations to @isro Team #PSLVC49 #EOS01 #ISRO,"Anantapur, India",+,14.55,77.416667
499,fatah_pak,() Sindh Covid-19 Update - 5th November 2020,Pakistan,,30.3308401,71.247499
500,ChristheBee2,"(+) Breaking; Mark Meadows, Trump‚Äôs Chief of Staff, says ‚Äúno need to worry about me and my COVID-19 prognosis around other healthy folk, most all of my friends wear white hoods!‚Äù",California,+,36.7014631,-118.7559974
501,Naijawhatsup,"(+) Real Madrid‚Äôs Hazard, Casemiro Test Positive For COVID-19",Nigeria,+,9.6000359,7.9999721
502,USRealityCheck,"(+) Comic: Election Results, Covid-19 Surge To Drive Sentiment In The Week Ahead:",USA,+,39.7837304,-100.4458825
503,bjgesteland,"(+) Utah teachers union demands that Gov. Gary Herbert move junior high and high schools online while COVID-19 cases break records, via @sltrib","Ogden, Utah",+,41.2230048,-111.9738429
504,SaveAmerica206,"(-) So is the Lincoln Project one reason we got ppl voting Biden and red down ballot? I appreciate the Biden votes. But I think 3 SC judges and COVID-19 is why if u ask me. They had enough of him and got enough out of him. Not the masses, the #GOP power",WA,-,47.2868352,-120.2126139
505,coop22089074,(+) Manufacturers fare better than many service providers in COVID-19 economy #FoxBusiness,"Griffin, Georgia",+,33.2467807,-84.2640904
506,RealMadridFC_b,(+) Real Madrid duo Hazard and Casemiro test positive for COVID-19 - Soccer News Ready for your highlights: #RealMadrid,Internet,+,19.37218875,-72.3346544510523
507,DDNewslive,(+) Special programme: Aarogya Bharat: COVID-19 #IndiaFightsCovid19 #MaskUpIndia,"New Delhi, India",+,28.6141793,77.2022662
508,BWiT_ALL,(+) Aerosolized bleach?... ü¶† How to clean a Covid-19 infested White House for the next resident ‚Äî Quartz,"Los Angeles, CA",+,34.054935,-118.244476
509,wokemillenniall,(+) @numberonepal Why does this surprise anyone? COVID-19 was created there with the help of the radical Left implemented to win this election this is a plan in the making after the impeachment didn‚Äôt work we saw Biden is connected to them he even campaigned on selling us out to them,"Texas, USA",+,31.8160381,-99.5120986
510,k29664911,(-) County health experts say surge in COVID-19 cases are due to community spread ‚Äì KCCI Des Moines,America,-,-27.4351024,-59.0017622330522
512,Heerak4Congress,"(-) USA is headed to over 3 million COViD-19 deaths by June 2021, unfortunately. It can be 30,000,000 if hotspot cities don't shut down completely! @OurMayors @HispanicCaucus @TheBlackCaucus @NatlGovsAssoc @usmayors @CDCgov @NIH @FDA @NHS See pinned tweet!","Arlington, Virginia",-,38.8903961,-77.0841585
513,editor13x,"(+) Top story: Texas poised to hit 1 million Covid-19 cases, the most in the nation , see more","Miami, Florida",+,25.7742658,-80.1936589
514,Megresistor,(+) U.S. breaks COVID-19 record for third straight day #SmartNews,United States,+,39.7837304,-100.4458825
516,TopherGrey,"(+) @RVAwonk Or perhaps more accurately, COVID-19 has just tested positive for Matt Gaetz.",Oregon,+,43.9792797,-120.737257
518,VeridicalW,"() While the US is focused on the election, the Covid-19 pandemic keeps growing",India,,22.3511148,78.6677428
519,babakph,() Dear God! 126k Covid-19 cases. Where was that vaccine that was promised before election day ?!,"Mountain View, CA ",,45.5073725,-73.6050824
520,draftpickvideo,(-) When COVID-19 moves your clients ‚öΩÔ∏è games two hours away!üò∑ We won‚Äôt let a little mileage stop us from getting our student athletes recruited! #DraftPickVideo #GameFilming #CollegeRecruitmentVideos,"Saint Louis, Missouri",-,38.6337716,-90.2416548
521,Bluto51,"(+) @Windycty23 Definitely a different year but the thing is everyone is playing in the same environment. Yes some teams may have to deal with more Covid-19 positives than others, but I could make a case that winning a championship this season takes more mental toughness than in a normal year.","Oklahoma City, OK",+,35.4729886,-97.5170536
522,joetenorio1,"(-) @TeamCavuto watching right now Cavuto you are such a snake. @FoxNews The POTUS is not the only ONE Claim fraud you idiot! This was an election during COVID-19 where many illegal things have been done. ""count all the vote"" cry is not the same as capon all Legal VOTES!","California, USA",-,36.7014631,-118.7559974
524,hzajic,(+) I know he‚Äôs not got the job for much longer but going golfing again when COVID-19 at an all time high? What a lazy loser!!#Loser #COVID„Éº19,California,+,36.7014631,-118.7559974
525,scott_tracht,() Opinion | How North Dakota became a covid-19 nightmare,"Tucson, AZ",,32.2218917,-110.9262353
526,jmackooh,"() If you‚Äôve had covid-19 and don‚Äôt mind talking about it, will you dm me?","Indianapolis, IN",,39.7683331,-86.1583502
527,WorldCOVID19,"() NORTHERN IRELAND. Announced on Saturday. COVID-19 DEATH DETAILS. 15 further deaths have been recorded in Northern Ireland, bringing the total reported by the Department of Health to 774. #coronavirus disease 2019 (COVID-19) #COVID19 #NorthernIreland",United Kingdom,,25.2232283,55.1594933008754
528,NatLauter,(-) #Ontario üá®üá¶ experiencing spike in new COVID-19 ICU admissions not seen since June. ‚ÄúIt seems like things are likely to take off and get significantly worse in the coming weeks or months. It takes time for that explosion to occur‚Äù #COVID19Ontario,"Ottawa, Ontario üá®üá¶",-,45.421106,-75.690308
529,OurMindsNotURS,"(+) Having researched extensively to find any genuine evidence that the Covid-19 virus exists, I feel down a rabbit hole. I couldn't find any REAL evidence that ANY virus exists. What if Germ theory is false? What if there is no such thing as a virus? All for the vaccine industry?",UK,+,54.7023545,-3.2765753
530,kcautv,"(+) November 7: Iowa reports more than 4,000 new COVID-19 cases","Sioux City, Iowa",+,42.4966815,-96.4058782
531,680CJOB,"(+) The number of critical care beds available in Manitoba could be tripled if a surge of COVID-19 cases pushes capacity limits, health officials say.","Winnipeg, Manitoba",+,49.884017,-97.168579
532,tamikahs66,"(+) She was a classic beauty, a pioneer, a pillar in the community and the go to person for advice or comforting words of wisdom. As much as I want to see you off today, fear of COVID-19 is keeping me away. Rest easy big sister, you earned your wings... your with God now.","Washington, DC",+,38.8949549,-77.0366456
533,H_NAILI,"(+) COVID-19/AFRICA: 44,000 deaths are too many deaths yet this number defied all predictions including those of African leaders/experts. Without disregarding the lives that were lost, it is a relief that African nations recorded 1.5M+ recoveries out of 1.8M+ infections.",New York,+,40.7306458,-73.9866136
534,MortonRiskMgmt,() Society of Insurance Research Survey Reveals Impact of COVID-19 on Insurance Professionals,"Greenwood Village, CO",,39.6172101,-104.9508141
535,JackinKeyWest,() Who knew that the cure for COVID-19 was to have a RIGGED National Election by the Democrats? Haven‚Äôt heard the Coronavirus drumbeat since November 3rd!,"Key West, FL",,24.5625566,-81.7724368
536,AfricanHopeComm,(+) President Trump's chief of staff Mark Meadows tests positive for COVID-19,"Harlem, NY",+,40.8078786,-73.9454154
537,FOX10Phoenix,"(+) JUST IN: There are 2,621 new COVID-19 cases in Arizona with 38 additional deaths.","Phoenix, AZ",+,33.4485866,-112.0773456
538,jhjpotter,() @SteveSchmidtSES And now he likely has covid-19 too!,"Montana, USA",,47.3752671,-109.6387579
539,HolyTrinityFrec,"() As the second COVID-19 lockdown has again prevented us from holding services in church, we've prepared this virtual act of remembrance for this coming Remembrance Sunday.","Freckleton, England",,53.7540406,-2.8718952
540,BISWAJITMAJI34,(+) I am proud to have contributed to India's fight against COVID-19 by donating to #PMCARES. Join the movement &amp; contribute at ..! #IndiaFightsCorona,ULUBERIA,+,22.4723552,88.0932373
541,Luminate_Design,"(+) Over 126,000 COVID-19 cases reported in U.S., a new single-day record.","Boston, MA, USA",+,42.3602534,-71.0582912
542,cdseghetti,(-) @CajunKilljoy @BIGIRVSATX1 I am sorry to report that Nester's father has covid-19,Red state Hell,-,37.666992,-75.788468
543,AuthorofAbsurd,"(-) Don't you recall Covid being on your ballot? I do. It was a proposition. ""Do you support ending Covid-19 and all of these ridiculous mandates now that the election is being held?"". I voted YES. With a Sharpie. I'm so glad we won on that issue, at least. ü§¶‚Äç‚ôÇÔ∏èüôÑ","Virginia Beach, VA",-,36.7953025,-76.0509251225811
544,nilkamalsahu73,(+) I am proud to have contributed to India's fight against COVID-19 by donating to #PMCARES. Join the movement &amp; contribute at ..! #IndiaFightsCorona,janjgir,+,22.0090841,82.578896
546,LaurenSexyGirl,() Coronavirus: UK bans Denmark visitors over mink Covid-19 fears,"Maryland, USA",,39.5162234,-76.9382069
